~VERSION INFORMATION
VERS.           2.0   :CWLS Log ASCII Standard - VERSION 2.0
WRAP.           NO    :One Line per depth step
PROD.  Schlumberger   :LAS Producer
PROG.  DLIS to ASCII 2.2                               :LAS Program name and version
CREA.        2015/01/05 09:49                          :LAS Creation date {YYYY/MM/DD hh:mm}
SOURCE.     JF 20-5_Main Pass.DLIS                     :DLIS File Name
FILE-ID.     SCMT_RST_PSP_012LUP                       :File Identification Number
#--------------------------------------------------
~WELL INFORMATION
#MNEM.UNIT      DATA             DESCRIPTION
#---- ------ --------------   -----------------------------
STRT .F        12063.0       :START DEPTH     
STOP .F         6915.0       :STOP DEPTH     
STEP .F           -0.5       :STEP     
NULL .          -999.25      :NULL VALUE
COMP .        Encana Oil & Gas (USA) Inc.              :COMPANY
WELL .        Jonah Federal 20-5                       :WELL
FLD  .        Jonah                                    :FIELD
LOC  .        SHL: Lot-6, 690' FNL & 2203' FEL         :LOCATION
CNTY .        Sublette                                 :COUNTY
STAT .        Wyoming                                  :STATE
CTRY .                                                 :COUNTRY
API  .        49035281690000                           :API NUMBER
UWI  .        49035281690000                           :UNIQUE WELL ID
DATE .        02-Jan-2015                              :LOG DATE {DD-MMM-YYYY}
SRVC .        Schlumberger                             :SERVICE COMPANY
LATI .DEG                                              :LATITUDE
LONG .DEG                                              :LONGITUDE
GDAT .                                                 :GeoDetic Datum
#-----------------------------------------------------------------------------
~PARAMETER INFORMATION
#MNEM.UNIT    VALUE                      DESCRIPTION
#---- -----   --------------------       ------------------------
RUN  .          1                        :RUN NUMBER
PDAT .        GROUND LEVEL               :Permanent Datum
EPD  .F         7141.000000              :Elevation of Permanent Datum above Mean Sea Level
EPD  .F         7141.000000              :Elevation of tool zero above Mean Sea Level
LMF  .          KELLY BUSHING            :Logging Measured From (Name of Logging Elevation Reference)
APD  .F          13.500000               :Elevation of Depth Reference (LMF) above Permanent Datum
#-----------------------------------------------------------------------------
~CURVE INFORMATION
#MNEM.UNIT   API CODE                                  DESCRIPTION
#---- -----  --------                                  -----------------------
DEPT .F                                                :DEPTH (BOREHOLE) {F10.1}
CIRN_FIL.                                              :Capture to Inelastic Ratio Near Filtered {F13.4}
CIRF_FIL.                                              :Capture to Inelastic Ratio Far Filtered {F13.4}
INND_FIL.HZ                                            :Gross Inelastic Count Rate Near Detector Filtered {F13.4}
INFD_FIL.HZ                                            :Gross Inelastic Count Rate Far Detector Filtered {F13.4}
IRAT .                                                 :Inelastic Ratio {F13.4}
IRAT_FIL.                                              :Inelastic Ratio Filtered {F13.4}
SIGM .CU                                               :Formation Sigma (Neutron Capture Cross Section) {F13.4}
TSCN_FIL.HZ                                            :Total Selected Count Rate Near Detector Filtered {F13.4}
TSCF_FIL.HZ                                            :Total Selected Count Rate Far Detector Filtered {F13.4}
TRAT .                                                 :Near/Far Capture Ratio {F13.4}
TRAT_FIL.                                              :Capture Ratio Filtered {F13.4}
TPHI .CFCF                                             :Thermal Decay Porosity {F13.4}
GR   .GAPI                                             :Gamma Ray {F13.4}
WTEP .DEGF                                             :Well Temperature {F13.4}
CBL  .MV                                               :CBL Amplitude {F13.4}
CCLD .V                                                :CCL Discriminated Amplitude {F13.4}
#-----------------------------------------------------------------------------
# 
#     DEPT      CIRN_FIL     CIRF_FIL     INND_FIL     INFD_FIL       IRAT       IRAT_FIL       SIGM       TSCN_FIL     TSCF_FIL       TRAT       TRAT_FIL       TPHI         GR           WTEP         CBL          CCLD
#
~A  
# ...
    9676.5       0.5812       1.3982    7167.2944    3424.8252       0.4712       0.4779      21.4578    4245.3779    4839.7256       0.8853       0.8800       0.1872      56.4454     196.6041      10.2254       0.0000
    9676.0       0.6031       1.5119    7360.7212    3518.6152       0.4795       0.4779      19.5459    4441.4341    5387.9336       0.8346       0.8293       0.1543      53.1951     196.5966       7.7287       0.0000
    9675.5       0.6186       1.6564    7493.1074    3607.7976       0.4831       0.4815      18.4777    4610.1509    5905.5083       0.7680       0.7831       0.1227      53.9444     196.5905       4.3843       0.0000
    9675.0       0.6162       1.7119    7570.4033    3626.3306       0.4818       0.4790      18.5477    4642.7637    6127.8359       0.7467       0.7578       0.1035      55.5577     196.5844       3.4605       0.0000
    9674.5       0.6016       1.6656    7480.6289    3566.4695       0.4722       0.4768      19.2819    4558.7671    5957.0366       0.7586       0.7662       0.1074      58.9381     196.5769       6.5112       0.0000
    9674.0       0.6057       1.6086    7315.3550    3466.5352       0.4763       0.4739      21.3487    4431.4683    5499.3130       0.7935       0.8101       0.1334      65.0816     196.5693       8.2554       0.0000
    9673.5       0.6042       1.4848    7080.4756    3366.3867       0.4732       0.4755      22.6126    4314.2207    4994.4912       0.8782       0.8688       0.1752      70.2650     196.5640       9.8269       0.0000
    9673.0       0.6091       1.3834    6983.3296    3326.6128       0.4769       0.4764      23.5647    4218.9023    4535.7813       0.9348       0.9329       0.2239      71.9711     196.5580      11.1859       0.0000
    9672.5       0.5929       1.2467    6977.1563    3345.0732       0.4791       0.4794      24.7069    4161.8872    4283.4424       0.9857       0.9727       0.2533      73.3167     196.5511      13.6215       0.0000
    9672.0       0.5864       1.2160    7092.7061    3413.9082       0.4823       0.4813      24.4923    4145.5664    4296.0605       0.9976       0.9665       0.2492      67.6718     196.5460      11.2818       0.0000
    9671.5       0.5764       1.2783    7266.5122    3498.2427       0.4826       0.4814      23.2186    4246.7358    4653.8525       0.9163       0.9188       0.2145      63.3776     196.5396       6.8511       0.0000
    9671.0       0.5940       1.4632    7476.1543    3590.7996       0.4795       0.4803      19.7932    4497.0947    5310.9873       0.8424       0.8524       0.1729      53.0181     196.5297       5.7604       0.0000
    9670.5       0.6347       1.6895    7617.9316    3658.6252       0.4789       0.4803      17.5125    4810.4023    6100.3540       0.7986       0.7932       0.1347      53.9011     196.5195       5.3195       0.0000
    9670.0       0.6674       1.8731    7659.7905    3708.4419       0.4823       0.4842      16.3369    5032.6860    6712.7871       0.7388       0.7519       0.1079      55.7505     196.5107       5.5562       0.0000
    9669.5       0.6743       1.8741    7635.3613    3693.8040       0.4912       0.4838      16.1467    5045.1680    6820.7046       0.7184       0.7404       0.0997      60.6031     196.5051       8.0151       0.0000
    9669.0       0.6459       1.7967    7583.6357    3658.9507       0.4778       0.4825      17.4536    4949.1851    6454.6602       0.7642       0.7704       0.1173      64.6717     196.4989      11.5742       0.0000
    9668.5       0.6373       1.6176    7495.0376    3574.9692       0.4784       0.4770      19.8167    4788.3457    5873.9634       0.8285       0.8182       0.1446      75.3474     196.4920      10.9771       0.0000
    9668.0       0.6295       1.4870    7347.7676    3502.4329       0.4747       0.4767      22.4447    4663.8687    5282.0112       0.8618       0.8886       0.1919      80.1557     196.4858       9.9851       0.0000
    9667.5       0.6348       1.3395    7249.0698    3446.6631       0.4769       0.4755      24.7970    4533.1367    4836.9912       0.9754       0.9416       0.2269      80.5193     196.4778       8.7090       0.0000
    9667.0       0.6129       1.2943    7213.1724    3427.8918       0.4748       0.4752      25.6700    4466.0845    4590.7656       0.9874       0.9730       0.2499      77.2431     196.4693       8.5986       0.0000
    9666.5       0.6043       1.3371    7258.9795    3439.5461       0.4740       0.4738      25.0533    4449.1631    4664.1338       0.9560       0.9548       0.2368      70.9985     196.4637       7.8681       0.0000
    9666.0       0.6148       1.4421    7289.9683    3467.6370       0.4727       0.4757      22.5101    4590.1753    5056.7603       0.9210       0.9113       0.2100      64.0246     196.4580       7.3806       0.0000
    9665.5       0.6572       1.6104    7345.5518    3550.2310       0.4803       0.4833      18.8645    4874.2070    5834.4097       0.8569       0.8453       0.1701      58.9803     196.4508       8.9548       0.0000
    9665.0       0.7115       1.8368    7400.8643    3655.0554       0.4968       0.4938      15.7755    5213.5962    6794.5474       0.7579       0.7750       0.1264      53.0687     196.4436      10.0917       0.0000
    9664.5       0.7421       2.0385    7474.7373    3761.8542       0.5043       0.5032      13.4476    5481.9565    7656.4717       0.7102       0.7181       0.0914      50.8453     196.4371      11.2555       0.0000
    9664.0       0.7514       2.1540    7514.7886    3814.0835       0.5087       0.5075      12.4319    5572.4307    8087.1230       0.6861       0.6895       0.0740      52.6514     196.4312      11.7451       0.0000
    9663.5       0.7374       2.1488    7552.5947    3821.8889       0.5097       0.5061      12.3643    5586.2026    8247.2324       0.6721       0.6773       0.0654      51.5306     196.4237      10.6553       0.0000
    9663.0       0.7321       2.1673    7576.0918    3814.9309       0.4998       0.5036      12.3689    5549.1606    8271.6504       0.6738       0.6709       0.0604      52.5134     196.4151       9.4580       0.0000
    9662.5       0.7302       2.1810    7601.5313    3807.1194       0.5012       0.5008      12.2402    5577.9121    8370.1133       0.6667       0.6665       0.0574      53.6114     196.4055       8.6895       0.0000
    9662.0       0.7400       2.2455    7609.4683    3835.2324       0.5015       0.5040      11.5496    5640.0566    8580.2988       0.6589       0.6575       0.0533      49.7355     196.3944       9.4436       0.0000
    9661.5       0.7511       2.2878    7632.1318    3839.0159       0.5093       0.5030      11.1572    5728.0269    8879.9219       0.6470       0.6454       0.0467      51.2034     196.3857      10.4796       0.0000
    9661.0       0.7560       2.3943    7663.1382    3848.8557       0.4983       0.5023      10.8118    5834.2124    9168.0801       0.6304       0.6365       0.0422      47.6582     196.3788       9.1759       0.0000
    9660.5       0.7733       2.4348    7717.0630    3847.8225       0.4992       0.4986      10.7335    5884.5142    9364.9668       0.6322       0.6284       0.0377      48.7457     196.3735       9.6419       0.0000
    9660.0       0.7579       2.4296    7746.2695    3876.2366       0.4983       0.5004      10.9822    5874.5879    9328.7490       0.6225       0.6298       0.0384      46.1681     196.3691      12.5384       0.0000
    9659.5       0.7504       2.3321    7787.2490    3889.7512       0.5036       0.4995      11.5841    5753.8755    9034.7070       0.6346       0.6374       0.0419      50.3676     196.3606      13.5651       0.0000
    9659.0       0.7132       2.2111    7804.5586    3883.0994       0.4966       0.4976      12.6904    5634.7993    8548.7988       0.6552       0.6604       0.0540      52.5984     196.3528      15.8154       0.0000
    9658.5       0.7048       2.0752    7821.5879    3864.3523       0.4925       0.4941      13.3569    5484.5098    8045.4731       0.6913       0.6826       0.0668      61.0031     196.3466      16.3000       0.0000
