~VERSION INFORMATION
VERS.           2.0   :CWLS Log ASCII Standard - VERSION 2.0
WRAP.           NO    :One Line per depth step
PROD.  Schlumberger   :LAS Producer
PROG.  DLIS to ASCII 2.2                               :LAS Program name and version
CREA.        2015/01/05 09:49                          :LAS Creation date {YYYY/MM/DD hh:mm}
SOURCE.     JF 20-5_Main Pass.DLIS                     :DLIS File Name
FILE-ID.     SCMT_RST_PSP_012LUP                       :File Identification Number
#--------------------------------------------------
~WELL INFORMATION
#MNEM.UNIT      DATA             DESCRIPTION
#---- ------ --------------   -----------------------------
STRT .F        12063.0       :START DEPTH     
STOP .F         6915.0       :STOP DEPTH     
STEP .F           -0.5       :STEP     
NULL .          -999.25      :NULL VALUE
COMP .        Encana Oil & Gas (USA) Inc.              :COMPANY
WELL .        Jonah Federal 20-5                       :WELL
FLD  .        Jonah                                    :FIELD
LOC  .        SHL: Lot-6, 690' FNL & 2203' FEL         :LOCATION
CNTY .        Sublette                                 :COUNTY
STAT .        Wyoming                                  :STATE
CTRY .                                                 :COUNTRY
API  .        49035281690000                           :API NUMBER
UWI  .        49035281690000                           :UNIQUE WELL ID
DATE .        02-Jan-2015                              :LOG DATE {DD-MMM-YYYY}
SRVC .        Schlumberger                             :SERVICE COMPANY
LATI .DEG                                              :LATITUDE
LONG .DEG                                              :LONGITUDE
GDAT .                                                 :GeoDetic Datum
#-----------------------------------------------------------------------------
~PARAMETER INFORMATION
#MNEM.UNIT    VALUE                      DESCRIPTION
#---- -----   --------------------       ------------------------
RUN  .          1                        :RUN NUMBER
PDAT .        GROUND LEVEL               :Permanent Datum
EPD  .F         7141.000000              :Elevation of Permanent Datum above Mean Sea Level
EPD  .F         7141.000000              :Elevation of tool zero above Mean Sea Level
LMF  .          KELLY BUSHING            :Logging Measured From (Name of Logging Elevation Reference)
APD  .F          13.500000               :Elevation of Depth Reference (LMF) above Permanent Datum
#-----------------------------------------------------------------------------
~CURVE INFORMATION
#MNEM.UNIT   API CODE                                  DESCRIPTION
#---- -----  --------                                  -----------------------
DEPT .F                                                :DEPTH (BOREHOLE) {F10.1}
CIRN_FIL.                                              :Capture to Inelastic Ratio Near Filtered {F13.4}
CIRF_FIL.                                              :Capture to Inelastic Ratio Far Filtered {F13.4}
INND_FIL.HZ                                            :Gross Inelastic Count Rate Near Detector Filtered {F13.4}
INFD_FIL.HZ                                            :Gross Inelastic Count Rate Far Detector Filtered {F13.4}
IRAT .                                                 :Inelastic Ratio {F13.4}
IRAT_FIL.                                              :Inelastic Ratio Filtered {F13.4}
SIGM .CU                                               :Formation Sigma (Neutron Capture Cross Section) {F13.4}
TSCN_FIL.HZ                                            :Total Selected Count Rate Near Detector Filtered {F13.4}
TSCF_FIL.HZ                                            :Total Selected Count Rate Far Detector Filtered {F13.4}
TRAT .                                                 :Near/Far Capture Ratio {F13.4}
TRAT_FIL.                                              :Capture Ratio Filtered {F13.4}
TPHI .CFCF                                             :Thermal Decay Porosity {F13.4}
GR   .GAPI                                             :Gamma Ray {F13.4}
WTEP .DEGF                                             :Well Temperature {F13.4}
CBL  .MV                                               :CBL Amplitude {F13.4}
CCLD .V                                                :CCL Discriminated Amplitude {F13.4}
#-----------------------------------------------------------------------------
# 
#     DEPT      CIRN_FIL     CIRF_FIL     INND_FIL     INFD_FIL       IRAT       IRAT_FIL       SIGM       TSCN_FIL     TSCF_FIL       TRAT       TRAT_FIL       TPHI         GR           WTEP         CBL          CCLD
#
~A  
   12063.0    -999.2500    -999.2500    -999.2500    -999.2500    -999.2500    -999.2500    -999.2500    -999.2500    -999.2500    -999.2500    -999.2500    -999.2500      25.8075     231.6347       2.2320       0.0000
   12062.5    -999.2500    -999.2500    -999.2500    -999.2500    -999.2500    -999.2500    -999.2500    -999.2500    -999.2500    -999.2500    -999.2500    -999.2500      25.8075     231.6347       2.4066       0.0000
   12062.0    -999.2500    -999.2500    -999.2500    -999.2500    -999.2500    -999.2500    -999.2500    -999.2500    -999.2500    -999.2500    -999.2500    -999.2500      25.8075     231.6347       2.5372       0.0000
   12061.5    -999.2500    -999.2500    -999.2500    -999.2500    -999.2500    -999.2500    -999.2500    -999.2500    -999.2500    -999.2500    -999.2500    -999.2500      25.8075     231.6347       2.6092       0.0000
   12061.0    -999.2500    -999.2500    -999.2500    -999.2500    -999.2500    -999.2500    -999.2500    -999.2500    -999.2500    -999.2500    -999.2500    -999.2500      25.8075     231.6347       2.6032       0.0000
   12060.5    -999.2500    -999.2500    -999.2500    -999.2500    -999.2500    -999.2500    -999.2500    -999.2500    -999.2500    -999.2500    -999.2500    -999.2500      25.8075     231.6347       2.8285       0.0000
   12060.0       0.7474       2.2926    7129.5220    3422.0076       0.4800       0.4800      13.2762    5328.3096    7845.3784       0.6792       0.6792       0.0674      25.8075     231.6347       3.0249       0.0000
   12059.5       0.7474       2.2926    7129.5220    3422.0076       0.4800       0.4800      13.2762    5328.3096    7845.3784       0.6792       0.6792       0.0674      25.8075     231.6347       3.1866       0.0000
   12059.0       0.7487       2.3673    7176.9492    3398.0786       0.4726       0.4735      12.1268    5381.0869    8110.2285       0.6524       0.6637       0.0610      25.8075     231.6347       3.2347       0.0000
   12058.5       0.7630       2.4401    7216.5645    3402.0098       0.4679       0.4714      11.6480    5409.0571    8309.7334       0.6596       0.6510       0.0548      25.8075     231.6347       3.2273       0.0000
   12058.0       0.7516       2.4518    7229.9839    3413.2944       0.4737       0.4721      11.3221    5461.2070    8377.2813       0.6410       0.6520       0.0574      25.8075     231.6347       3.0916       0.0000
   12057.5       0.7702       2.4647    7208.9990    3432.4949       0.4746       0.4762      10.9593    5480.4312    8400.2598       0.6553       0.6524       0.0587      25.8075     231.6347       2.9499       0.0000
   12057.0       0.7712       2.4390    7169.9907    3424.4592       0.4801       0.4776      10.6247    5551.8135    8380.5439       0.6611       0.6625       0.0652      25.8075     231.6347       2.7230       0.0000
   12056.5       0.7848       2.4535    7144.0801    3404.1995       0.4781       0.4765      10.6147    5580.8477    8396.6016       0.6710       0.6647       0.0655      25.8075     231.6347       2.6915       0.0000
   12056.0       0.7811       2.4960    7146.0024    3381.4102       0.4713       0.4732      10.5759    5565.4355    8423.2520       0.6619       0.6607       0.0619      25.8075     231.6347       2.5642       0.0000
   12055.5       0.7661       2.4930    7176.0366    3382.4409       0.4702       0.4713      10.3928    5495.0352    8441.1035       0.6493       0.6510       0.0553      25.8075     231.6347       2.3303       0.0000
   12055.0       0.7502       2.4737    7227.2319    3400.5610       0.4726       0.4705      10.4722    5429.1953    8454.3086       0.6417       0.6422       0.0485      25.8075     231.6347       2.0464       0.0000
   12054.5       0.7392       2.4886    7286.3711    3410.8979       0.4688       0.4681      10.4670    5428.8735    8515.2832       0.6355       0.6376       0.0451      25.8075     231.6347       2.3052       0.0000
   12054.0       0.7428       2.5427    7340.9458    3409.8066       0.4630       0.4645      10.4086    5460.8218    8621.2852       0.6354       0.6334       0.0425      25.8075     231.6347       2.3155       0.0000
   12053.5       0.7442       2.5707    7370.3564    3417.2773       0.4617       0.4637      10.3007    5505.0459    8731.1855       0.6294       0.6305       0.0411      25.8075     231.6347       2.7201       0.0000
   12053.0       0.7481       2.5667    7351.8086    3424.0349       0.4662       0.4658      10.2957    5517.0513    8800.4766       0.6268       0.6269       0.0387      25.8075     231.6347       2.9167       0.0000
   12052.5       0.7514       2.5820    7295.4380    3412.2161       0.4694       0.4677      10.4015    5523.2285    8836.6299       0.6246       0.6250       0.0366      25.8075     231.6347       3.0135       0.0000
   12052.0       0.7732       2.6173    7229.8262    3386.6125       0.4676       0.4684      10.2766    5523.8203    8864.9521       0.6238       0.6231       0.0350      25.8075     231.6347       3.3698       0.0000
   12051.5       0.7778       2.6434    7218.9336    3383.4055       0.4683       0.4687      10.2444    5511.5298    8884.0840       0.6210       0.6204       0.0329      25.8075     231.6347       3.7778       0.0000
   12051.0       0.7683       2.5911    7248.5361    3425.4766       0.4701       0.4725      10.1673    5481.7163    8846.7861       0.6164       0.6196       0.0325      25.8075     231.6347       4.0517       0.0000
   12050.5       0.7462       2.5311    7290.3496    3480.2466       0.4792       0.4774      10.1575    5457.7480    8791.4395       0.6215       0.6208       0.0335      25.8075     231.6347       5.7120       0.0000
   12050.0       0.7496       2.4777    7270.4741    3520.2727       0.4828       0.4842      10.2079    5466.8057    8733.4189       0.6246       0.6260       0.0369      25.8075     231.6347       3.6578       0.0000
   12049.5       0.7619       2.4593    7243.1919    3528.9473       0.4907       0.4872      10.4257    5491.8994    8714.1406       0.6318       0.6302       0.0392      25.8075     231.6347       6.2896       0.0000
   12049.0       0.7616       2.4624    7221.9141    3529.4646       0.4882       0.4887      10.6164    5527.9043    8681.1973       0.6343       0.6368       0.0426      25.8075     231.6347       5.2481       0.0000
   12048.5       0.7676       2.4431    7244.1484    3513.2107       0.4873       0.4850      10.8330    5574.7075    8645.9609       0.6442       0.6448       0.0465      25.8075     231.6335       4.7750       0.0000
   12048.0       0.7734       2.4653    7224.8882    3495.0811       0.4795       0.4838      10.7891    5642.8711    8615.5430       0.6559       0.6550       0.0527      25.8075     231.6367       3.3600       0.0000
   12047.5       0.7991       2.4732    7160.6777    3456.6587       0.4845       0.4828      10.7535    5700.1123    8604.6660       0.6648       0.6624       0.0574      25.8075     231.6377       3.0591       0.0000
   12047.0       0.8178       2.5243    7078.1270    3418.0396       0.4842       0.4829      10.5971    5782.0020    8567.5645       0.6666       0.6750       0.0662      25.8075     231.6390       3.0759       0.0000
   12046.5       0.8384       2.5212    7046.0806    3380.8430       0.4799       0.4798      10.7693    5811.1523    8494.1387       0.6934       0.6843       0.0719      29.5621     231.6401       2.7691       0.0000
   12046.0       0.8273       2.4952    7083.3086    3400.7427       0.4754       0.4801      11.0070    5813.2939    8444.1445       0.6927       0.6884       0.0739      32.1662     231.6422       3.0393       0.0000
   12045.5       0.8047       2.4410    7105.0938    3455.6614       0.4850       0.4864      10.6831    5684.6685    8371.3301       0.6792       0.6790       0.0685      34.1151     231.6452       3.1971       0.0000
   12045.0       0.7745       2.3296    7074.6636    3536.6726       0.4987       0.5000      10.9229    5610.8276    8299.2197       0.6651       0.6761       0.0655      36.4404     231.6437       3.1983       0.0000
