~VERSION INFORMATION
VERS.           2.0   :CWLS Log ASCII Standard - VERSION 2.0
WRAP.           NO    :One Line per depth step
PROD.  Schlumberger   :LAS Producer
PROG.  DLIS to ASCII 2.2                               :LAS Program name and version
CREA.        2015/01/05 09:49                          :LAS Creation date {YYYY/MM/DD hh:mm}
SOURCE.     JF 20-5_Main Pass.DLIS                     :DLIS File Name
FILE-ID.     SCMT_RST_PSP_012LUP                       :File Identification Number
#--------------------------------------------------
~WELL INFORMATION
#MNEM.UNIT      DATA             DESCRIPTION
#---- ------ --------------   -----------------------------
STRT .F        12063.0       :START DEPTH     
STOP .F         6915.0       :STOP DEPTH     
STEP .F           -0.5       :STEP     
NULL .          -999.25      :NULL VALUE
COMP .        Encana Oil & Gas (USA) Inc.              :COMPANY
WELL .        Jonah Federal 20-5                       :WELL
FLD  .        Jonah                                    :FIELD
LOC  .        SHL: Lot-6, 690' FNL & 2203' FEL         :LOCATION
CNTY .        Sublette                                 :COUNTY
STAT .        Wyoming                                  :STATE
CTRY .                                                 :COUNTRY
API  .        49035281690000                           :API NUMBER
UWI  .        49035281690000                           :UNIQUE WELL ID
DATE .        02-Jan-2015                              :LOG DATE {DD-MMM-YYYY}
SRVC .        Schlumberger                             :SERVICE COMPANY
LATI .DEG                                              :LATITUDE
LONG .DEG                                              :LONGITUDE
GDAT .                                                 :GeoDetic Datum
#-----------------------------------------------------------------------------
~PARAMETER INFORMATION
#MNEM.UNIT    VALUE                      DESCRIPTION
#---- -----   --------------------       ------------------------
RUN  .          1                        :RUN NUMBER
PDAT .        GROUND LEVEL               :Permanent Datum
EPD  .F         7141.000000              :Elevation of Permanent Datum above Mean Sea Level
EPD  .F         7141.000000              :Elevation of tool zero above Mean Sea Level
LMF  .          KELLY BUSHING            :Logging Measured From (Name of Logging Elevation Reference)
APD  .F          13.500000               :Elevation of Depth Reference (LMF) above Permanent Datum
#-----------------------------------------------------------------------------
~CURVE INFORMATION
#MNEM.UNIT   API CODE                                  DESCRIPTION
#---- -----  --------                                  -----------------------
DEPT .F                                                :DEPTH (BOREHOLE) {F10.1}
CIRN_FIL.                                              :Capture to Inelastic Ratio Near Filtered {F13.4}
CIRF_FIL.                                              :Capture to Inelastic Ratio Far Filtered {F13.4}
INND_FIL.HZ                                            :Gross Inelastic Count Rate Near Detector Filtered {F13.4}
INFD_FIL.HZ                                            :Gross Inelastic Count Rate Far Detector Filtered {F13.4}
IRAT .                                                 :Inelastic Ratio {F13.4}
IRAT_FIL.                                              :Inelastic Ratio Filtered {F13.4}
SIGM .CU                                               :Formation Sigma (Neutron Capture Cross Section) {F13.4}
TSCN_FIL.HZ                                            :Total Selected Count Rate Near Detector Filtered {F13.4}
TSCF_FIL.HZ                                            :Total Selected Count Rate Far Detector Filtered {F13.4}
TRAT .                                                 :Near/Far Capture Ratio {F13.4}
TRAT_FIL.                                              :Capture Ratio Filtered {F13.4}
TPHI .CFCF                                             :Thermal Decay Porosity {F13.4}
GR   .GAPI                                             :Gamma Ray {F13.4}
WTEP .DEGF                                             :Well Temperature {F13.4}
CBL  .MV                                               :CBL Amplitude {F13.4}
CCLD .V                                                :CCL Discriminated Amplitude {F13.4}
#-----------------------------------------------------------------------------
# 
#     DEPT      CIRN_FIL     CIRF_FIL     INND_FIL     INFD_FIL       IRAT       IRAT_FIL       SIGM       TSCN_FIL     TSCF_FIL       TRAT       TRAT_FIL       TPHI         GR           WTEP         CBL          CCLD
#
~A  
# ...
   11045.5       0.5816       1.5432    7271.5737    3574.2671       0.4965       0.4915      18.9592    4213.6699    5546.0503       0.7535       0.7621       0.0960      63.0194     214.8982       1.8715       0.0000
   11045.0       0.5814       1.6200    7333.3369    3653.2412       0.4983       0.4982      17.6860    4254.2383    5932.2896       0.7203       0.7186       0.0696      59.6778     214.8975       1.7377       0.0000
   11044.5       0.5784       1.7149    7418.9409    3689.0791       0.4997       0.4973      15.8472    4321.3730    6250.2588       0.6819       0.6921       0.0580      55.1877     214.8986       1.6865       0.0000
   11044.0       0.5881       1.7668    7438.1875    3692.6714       0.4939       0.4965      15.7958    4385.6772    6450.5806       0.6742       0.6799       0.0498      55.5060     214.9014       1.6819       0.0000
   11043.5       0.5999       1.7776    7437.5933    3708.7568       0.4958       0.4987      15.6842    4442.9829    6503.1143       0.6837       0.6832       0.0524      57.3553     214.9026       1.6079       0.0000
   11043.0       0.5990       1.7255    7409.7290    3711.4395       0.5063       0.5009      16.2957    4436.8296    6406.8472       0.6919       0.6927       0.0565      61.5740     214.9016       1.6323       0.0000
   11042.5       0.5880       1.6857    7414.7148    3711.5432       0.5005       0.5006      17.0582    4369.6777    6247.2266       0.7025       0.6996       0.0584      66.3680     214.9011       1.9666       0.0000
   11042.0       0.5741       1.6418    7387.4561    3670.2109       0.4949       0.4968      17.9130    4319.6279    6020.5894       0.7044       0.7181       0.0685      67.8591     214.8986       1.9576       0.0000
   11041.5       0.5859       1.5893    7345.5566    3670.6987       0.4950       0.4998      18.7112    4284.2881    5849.5049       0.7475       0.7329       0.0763      67.1709     214.9005       1.9168       0.0000
   11041.0       0.5858       1.5500    7274.3989    3657.6465       0.5094       0.5028      19.3985    4283.2427    5722.1021       0.7469       0.7486       0.0850      62.6819     214.9023       1.9708       0.0000
   11040.5       0.5889       1.5697    7272.7725    3657.6318       0.5041       0.5029      19.7077    4290.5259    5652.1797       0.7512       0.7593       0.0921      60.2240     214.8986       1.9924       0.0000
   11040.0       0.5913       1.5357    7277.1123    3581.4343       0.4953       0.4922      21.0901    4329.1733    5490.0747       0.7797       0.7898       0.1099      63.0983     214.8935       2.0260       0.0000
   11039.5       0.6028       1.5089    7270.0742    3530.4636       0.4771       0.4856      22.4811    4377.7041    5202.8105       0.8384       0.8446       0.1475      66.4271     214.8917       2.1362       0.0000
   11039.0       0.6123       1.3807    7209.4175    3469.0757       0.4843       0.4812      25.0337    4368.7197    4894.8672       0.9157       0.8946       0.1779      70.4957     214.8928       2.3182       0.0000
   11038.5       0.6005       1.3487    7162.4575    3455.1304       0.4822       0.4824      26.3270    4328.3267    4632.3667       0.9296       0.9349       0.2068      75.6718     214.8930       2.7030       0.0000
   11038.0       0.5948       1.2922    7124.2217    3431.8799       0.4807       0.4817      27.1335    4244.5317    4491.3247       0.9594       0.9453       0.2136      84.5487     214.8920       4.6705       0.0000
   11037.5       0.5870       1.2799    7108.4316    3419.8667       0.4823       0.4811      26.4989    4221.5459    4373.9434       0.9467       0.9654       0.2339      83.8913     214.8892       4.4216       0.0000
   11037.0       0.5991       1.2551    7072.4966    3419.0857       0.4803       0.4834      26.1896    4173.7490    4307.0854       0.9901       0.9693       0.2387      85.5187     214.8859       4.7604       0.0000
   11036.5       0.5931       1.2329    7040.1538    3400.8440       0.4877       0.4831      25.6694    4183.4443    4254.5933       0.9710       0.9833       0.2521      85.1313     214.8815       4.5692       0.0000
   11036.0       0.6087       1.2435    7009.2817    3394.7542       0.4812       0.4843      26.3661    4150.0581    4233.7080       0.9887       0.9803       0.2463      80.0058     214.8775       4.2828       0.0000
   11035.5       0.5952       1.2250    6973.5029    3379.9143       0.4841       0.4847      25.4703    4154.1670    4248.7051       0.9811       0.9778       0.2472      74.8248     214.8782       3.7409       0.0000
   11035.0       0.5941       1.2632    7029.3418    3420.4465       0.4888       0.4866      24.3143    4138.9810    4312.6855       0.9637       0.9601       0.2366      67.8416     214.8794       2.1333       0.0000
   11034.5       0.5763       1.2820    7124.5566    3464.8420       0.4869       0.4864      21.9114    4179.3833    4621.4668       0.9356       0.9090       0.2043      63.2552     214.8777       2.0238       0.0000
   11034.0       0.5823       1.4057    7241.2041    3517.9153       0.4834       0.4858      20.2666    4222.9746    4949.0444       0.8277       0.8575       0.1694      63.6425     214.8736       1.6205       0.0000
   11033.5       0.5872       1.4397    7272.6206    3526.1238       0.4872       0.4848      20.3799    4268.7783    5197.1685       0.8091       0.8215       0.1402      70.0621     214.8696       1.6153       0.0000
   11033.0       0.5918       1.4439    7245.4937    3515.7820       0.4840       0.4852      20.4906    4260.0220    5060.4795       0.8276       0.8436       0.1570      74.5033     214.8677       1.5928       0.0000
   11032.5       0.5889       1.3326    7232.5879    3465.9512       0.4845       0.4792      23.1662    4184.6973    4752.9619       0.8940       0.8834       0.1781      79.2841     214.8649       1.4880       0.0000
   11032.0       0.5719       1.2729    7223.6152    3452.7954       0.4691       0.4780      24.5921    4103.6660    4457.3027       0.9285       0.9215       0.2030      82.2368     214.8613       1.6963       0.0000
   11031.5       0.5658       1.2338    7239.2295    3441.6738       0.4803       0.4754      26.4110    4028.2786    4332.0454       0.9421       0.9299       0.2029      83.3464     214.8599       1.7919       0.0000
   11031.0       0.5560       1.2681    7208.1450    3469.6628       0.4768       0.4814      25.1409    4017.0686    4367.9678       0.9192       0.9200       0.1996      79.1321     214.8564       1.6787       0.0000
   11030.5       0.5591       1.3149    7201.2134    3445.9802       0.4870       0.4786      23.6265    3955.8604    4491.0898       0.8986       0.8819       0.1749      76.3671     214.8510       1.6801       0.0000
   11030.0       0.5407       1.3716    7195.2036    3443.8958       0.4719       0.4787      22.9970    3913.0830    4594.1694       0.8280       0.8524       0.1539      78.2002     214.8450       1.6323       0.0000
   11029.5       0.5390       1.3680    7235.8428    3428.0457       0.4771       0.4738      23.6513    3873.6812    4643.4287       0.8307       0.8343       0.1370      81.1654     214.8422       1.7683       0.0000
   11029.0       0.5388       1.3518    7263.0352    3456.2976       0.4723       0.4759      24.7641    3920.4104    4614.3320       0.8442       0.8498       0.1447      78.9399     214.8402       2.0428       0.0000
   11028.5       0.5503       1.3094    7283.3740    3480.3870       0.4782       0.4778      24.2156    3958.5874    4594.5552       0.8744       0.8616       0.1558      80.8032     214.8345       2.2617       0.0000
   11028.0       0.5490       1.3084    7254.8252    3512.2109       0.4830       0.4842      24.1696    3985.0625    4577.5776       0.8663       0.8706       0.1630      80.6092     214.8308       2.6722       0.0000
   11027.5       0.5524       1.2959    7229.5093    3507.8289       0.4912       0.4852      24.2023    3979.3181    4573.3018       0.8710       0.8701       0.1627      82.4749     214.8298       2.8693       0.0000
