~VERSION INFORMATION
VERS.           2.0   :CWLS Log ASCII Standard - VERSION 2.0
WRAP.           NO    :One Line per depth step
PROD.  Schlumberger   :LAS Producer
PROG.  DLIS to ASCII 2.2                               :LAS Program name and version
CREA.        2015/01/05 09:49                          :LAS Creation date {YYYY/MM/DD hh:mm}
SOURCE.     JF 20-5_Main Pass.DLIS                     :DLIS File Name
FILE-ID.     SCMT_RST_PSP_012LUP                       :File Identification Number
#--------------------------------------------------
~WELL INFORMATION
#MNEM.UNIT      DATA             DESCRIPTION
#---- ------ --------------   -----------------------------
STRT .F        12063.0       :START DEPTH     
STOP .F         6915.0       :STOP DEPTH     
STEP .F           -0.5       :STEP     
NULL .          -999.25      :NULL VALUE
COMP .        Encana Oil & Gas (USA) Inc.              :COMPANY
WELL .        Jonah Federal 20-5                       :WELL
FLD  .        Jonah                                    :FIELD
LOC  .        SHL: Lot-6, 690' FNL & 2203' FEL         :LOCATION
CNTY .        Sublette                                 :COUNTY
STAT .        Wyoming                                  :STATE
CTRY .                                                 :COUNTRY
API  .        49035281690000                           :API NUMBER
UWI  .        49035281690000                           :UNIQUE WELL ID
DATE .        02-Jan-2015                              :LOG DATE {DD-MMM-YYYY}
SRVC .        Schlumberger                             :SERVICE COMPANY
LATI .DEG                                              :LATITUDE
LONG .DEG                                              :LONGITUDE
GDAT .                                                 :GeoDetic Datum
#-----------------------------------------------------------------------------
~PARAMETER INFORMATION
#MNEM.UNIT    VALUE                      DESCRIPTION
#---- -----   --------------------       ------------------------
RUN  .          1                        :RUN NUMBER
PDAT .        GROUND LEVEL               :Permanent Datum
EPD  .F         7141.000000              :Elevation of Permanent Datum above Mean Sea Level
EPD  .F         7141.000000              :Elevation of tool zero above Mean Sea Level
LMF  .          KELLY BUSHING            :Logging Measured From (Name of Logging Elevation Reference)
APD  .F          13.500000               :Elevation of Depth Reference (LMF) above Permanent Datum
#-----------------------------------------------------------------------------
~CURVE INFORMATION
#MNEM.UNIT   API CODE                                  DESCRIPTION
#---- -----  --------                                  -----------------------
DEPT .F                                                :DEPTH (BOREHOLE) {F10.1}
CIRN_FIL.                                              :Capture to Inelastic Ratio Near Filtered {F13.4}
CIRF_FIL.                                              :Capture to Inelastic Ratio Far Filtered {F13.4}
INND_FIL.HZ                                            :Gross Inelastic Count Rate Near Detector Filtered {F13.4}
INFD_FIL.HZ                                            :Gross Inelastic Count Rate Far Detector Filtered {F13.4}
IRAT .                                                 :Inelastic Ratio {F13.4}
IRAT_FIL.                                              :Inelastic Ratio Filtered {F13.4}
SIGM .CU                                               :Formation Sigma (Neutron Capture Cross Section) {F13.4}
TSCN_FIL.HZ                                            :Total Selected Count Rate Near Detector Filtered {F13.4}
TSCF_FIL.HZ                                            :Total Selected Count Rate Far Detector Filtered {F13.4}
TRAT .                                                 :Near/Far Capture Ratio {F13.4}
TRAT_FIL.                                              :Capture Ratio Filtered {F13.4}
TPHI .CFCF                                             :Thermal Decay Porosity {F13.4}
GR   .GAPI                                             :Gamma Ray {F13.4}
WTEP .DEGF                                             :Well Temperature {F13.4}
CBL  .MV                                               :CBL Amplitude {F13.4}
CCLD .V                                                :CCL Discriminated Amplitude {F13.4}
#-----------------------------------------------------------------------------
# 
#     DEPT      CIRN_FIL     CIRF_FIL     INND_FIL     INFD_FIL       IRAT       IRAT_FIL       SIGM       TSCN_FIL     TSCF_FIL       TRAT       TRAT_FIL       TPHI         GR           WTEP         CBL          CCLD
#
~A  
# ...
   10009.5       0.5263       1.2140    7105.2295    3525.4033       0.4939       0.4962      26.0211    3761.1575    4273.3188       0.8808       0.8801       0.1629      69.7508     200.6428      15.1022       0.0000
   10009.0       0.5354       1.2222    7057.8306    3501.2339       0.5016       0.4961      26.7342    3809.7832    4266.9702       0.8849       0.8929       0.1704      77.7077     200.6343      13.9837       0.0000
   10008.5       0.5444       1.2270    7020.0957    3484.8643       0.4927       0.4964      26.4007    3839.1313    4267.2734       0.9130       0.8998       0.1768      73.7730     200.6246      10.0172       0.0000
   10008.0       0.5399       1.2406    7065.0596    3454.7522       0.4949       0.4891      26.3089    3848.2168    4267.2324       0.9014       0.9019       0.1785      69.7571     200.6161       7.8720       0.0000
   10007.5       0.5356       1.2705    7124.9697    3509.7639       0.4796       0.4926      24.3054    3994.0491    4578.6523       0.8913       0.8751       0.1645      61.5251     200.6077       6.0165       0.0000
   10007.0       0.5771       1.3999    7220.2778    3563.6482       0.5034       0.4935      20.8651    4262.2007    5251.1006       0.8326       0.8211       0.1358      56.2518     200.6010       4.3899       0.0000
   10006.5       0.6419       1.6388    7231.2305    3636.9539       0.4976       0.5030      16.9108    4636.0049    6117.6240       0.7395       0.7635       0.1066      45.0678     200.5902       3.1748       0.0000
   10006.0       0.7021       1.8680    7252.7046    3640.8230       0.5079       0.5020      13.7373    4965.1265    6861.6797       0.7185       0.7243       0.0888      41.9654     200.5810       2.9107       0.0000
   10005.5       0.7264       2.0380    7219.4189    3651.0747       0.5005       0.5057      12.2737    5155.5044    7354.2539       0.7149       0.7018       0.0780      39.5201     200.5740       2.6706       0.0000
   10005.0       0.7273       2.0991    7208.5200    3630.5471       0.5088       0.5037      11.5380    5211.7690    7610.6499       0.6721       0.6852       0.0689      45.1506     200.5653       2.3764       0.0000
   10004.5       0.7082       2.1404    7188.7671    3625.4163       0.5016       0.5043      11.3424    5153.6680    7691.3433       0.6686       0.6701       0.0589      42.9389     200.5590       1.9356       0.0000
   10004.0       0.7027       2.0905    7217.1099    3623.5566       0.5025       0.5021      11.0817    5120.3667    7654.8594       0.6695       0.6689       0.0588      41.3135     200.5506       2.0543       0.0000
   10003.5       0.6979       2.0664    7238.5874    3663.9690       0.5021       0.5062      10.7672    5114.8174    7645.3579       0.6686       0.6690       0.0597      40.2176     200.5395       2.1423       0.0000
   10003.0       0.7067       2.0421    7244.1577    3684.8125       0.5139       0.5087      10.7650    5147.8608    7695.2710       0.6689       0.6690       0.0595      40.4334     200.5297       2.1906       0.0000
   10002.5       0.7181       2.1183    7239.0518    3719.4829       0.5100       0.5138      10.7195    5185.2305    7758.0581       0.6693       0.6684       0.0592      40.9607     200.5239       2.0690       0.0000
   10002.0       0.7145       2.0931    7240.5322    3721.3828       0.5175       0.5140      10.5771    5208.9639    7823.0503       0.6669       0.6659       0.0581      42.4335     200.5197       1.9127       0.0000
   10001.5       0.7106       2.1168    7262.8120    3757.1663       0.5144       0.5173      10.6643    5162.1362    7845.4399       0.6614       0.6580       0.0528      43.4071     200.5149       1.9188       0.0000
   10001.0       0.6968       2.0806    7265.8760    3750.8464       0.5200       0.5162      10.6541    5127.8506    7836.1060       0.6457       0.6544       0.0505      44.6938     200.5076       1.8014       0.0000
   10000.5       0.7033       2.0877    7255.3169    3754.6479       0.5143       0.5175      11.4160    5111.0713    7764.0190       0.6561       0.6584       0.0506      42.8548     200.4995       1.8254       0.0000
   10000.0       0.7125       2.0486    7246.6362    3738.3005       0.5182       0.5159      11.7097    5099.9209    7617.3584       0.6735       0.6697       0.0570      45.1081     200.4938       1.6526       0.0000
    9999.5       0.6922       1.9842    7260.1616    3734.3091       0.5151       0.5144      12.7588    4975.5459    7375.1279       0.6795       0.6746       0.0568      48.4437     200.4869       1.7756       0.0000
    9999.0       0.6499       1.8821    7301.4800    3722.6418       0.5098       0.5099      14.2508    4739.4507    6990.1636       0.6707       0.6782       0.0540      52.9696     200.4813       2.0046      -0.4024
    9998.5       0.6067       1.7476    7333.2407    3701.1880       0.5047       0.5047      15.5557    4529.4917    6546.2871       0.6843       0.6932       0.0598      49.8294     200.4786       2.7063       0.0761
    9998.0       0.6021       1.6612    7347.3574    3698.3154       0.4997       0.5034      15.9316    4466.2271    6253.5313       0.7247       0.7147       0.0733      51.1203     200.4745       3.2681       0.0884
    9997.5       0.6252       1.6716    7352.6055    3688.9644       0.5056       0.5017      15.3580    4597.6514    6251.3589       0.7353       0.7352       0.0896      48.7219     200.4707       3.5850       0.0000
    9997.0       0.6561       1.7820    7360.5269    3686.3298       0.4998       0.5008      14.6019    4751.2368    6489.8560       0.7458       0.7324       0.0903      49.1339     200.4647       3.5059       0.0000
    9996.5       0.6618       1.8565    7389.8755    3678.7632       0.4970       0.4978      14.2600    4868.6543    6733.0225       0.7162       0.7235       0.0853      47.1971     200.4577       3.2428       0.0000
    9996.0       0.6610       1.8785    7390.8867    3680.0723       0.4966       0.4979      13.8290    4866.0977    6806.5181       0.7087       0.7150       0.0809      56.1604     200.4496       3.1012       0.0000
    9995.5       0.6553       1.8106    7368.1909    3679.1641       0.5001       0.4993      14.5074    4763.5562    6681.8022       0.7201       0.7129       0.0772      61.1573     200.4376       3.0296       0.0000
    9995.0       0.6243       1.7352    7336.7939    3637.5317       0.5013       0.4958      15.8839    4558.9692    6332.6191       0.7100       0.7202       0.0775      63.7464     200.4292       2.9385       0.0000
    9994.5       0.5909       1.6463    7312.7612    3585.8618       0.4859       0.4904      17.7845    4331.4258    5968.0635       0.7306       0.7265       0.0751      65.3639     200.4245       3.8276       0.0000
    9994.0       0.5711       1.5931    7334.4229    3559.1997       0.4838       0.4853      18.3045    4236.2983    5690.8350       0.7388       0.7446       0.0862      64.7128     200.4160       4.7521       0.0000
    9993.5       0.5858       1.5632    7324.2783    3582.5942       0.4860       0.4891      18.1695    4286.0083    5691.5537       0.7645       0.7530       0.0930      56.8590     200.4076       5.0026       0.0000
    9993.0       0.6074       1.6240    7331.7500    3638.2927       0.4976       0.4963      16.8045    4476.2925    5922.0176       0.7557       0.7562       0.1006      52.4206     200.3951       5.9765       0.0000
    9992.5       0.6329       1.7050    7289.7524    3646.3064       0.5052       0.5002      16.2277    4650.7314    6241.4009       0.7484       0.7456       0.0952      46.7303     200.3817       5.8444       0.0000
    9992.0       0.6622       1.8071    7270.5215    3632.3464       0.4978       0.4996      15.2497    4819.0029    6471.7305       0.7326       0.7447       0.0980      42.1116     200.3720       4.0760       0.0000
    9991.5       0.6844       1.8137    7249.5317    3606.7744       0.4958       0.4975      14.5179    4902.6045    6585.6475       0.7531       0.7444       0.1003      42.1116     200.3601       3.6464       0.0000
