~VERSION INFORMATION
VERS.           2.0   :CWLS Log ASCII Standard - VERSION 2.0
WRAP.           NO    :One Line per depth step
PROD.  Schlumberger   :LAS Producer
PROG.  DLIS to ASCII 2.2                               :LAS Program name and version
CREA.        2015/01/05 09:49                          :LAS Creation date {YYYY/MM/DD hh:mm}
SOURCE.     JF 20-5_Main Pass.DLIS                     :DLIS File Name
FILE-ID.     SCMT_RST_PSP_012LUP                       :File Identification Number
#--------------------------------------------------
~WELL INFORMATION
#MNEM.UNIT      DATA             DESCRIPTION
#---- ------ --------------   -----------------------------
STRT .F        12063.0       :START DEPTH     
STOP .F         6915.0       :STOP DEPTH     
STEP .F           -0.5       :STEP     
NULL .          -999.25      :NULL VALUE
COMP .        Encana Oil & Gas (USA) Inc.              :COMPANY
WELL .        Jonah Federal 20-5                       :WELL
FLD  .        Jonah                                    :FIELD
LOC  .        SHL: Lot-6, 690' FNL & 2203' FEL         :LOCATION
CNTY .        Sublette                                 :COUNTY
STAT .        Wyoming                                  :STATE
CTRY .                                                 :COUNTRY
API  .        49035281690000                           :API NUMBER
UWI  .        49035281690000                           :UNIQUE WELL ID
DATE .        02-Jan-2015                              :LOG DATE {DD-MMM-YYYY}
SRVC .        Schlumberger                             :SERVICE COMPANY
LATI .DEG                                              :LATITUDE
LONG .DEG                                              :LONGITUDE
GDAT .                                                 :GeoDetic Datum
#-----------------------------------------------------------------------------
~PARAMETER INFORMATION
#MNEM.UNIT    VALUE                      DESCRIPTION
#---- -----   --------------------       ------------------------
RUN  .          1                        :RUN NUMBER
PDAT .        GROUND LEVEL               :Permanent Datum
EPD  .F         7141.000000              :Elevation of Permanent Datum above Mean Sea Level
EPD  .F         7141.000000              :Elevation of tool zero above Mean Sea Level
LMF  .          KELLY BUSHING            :Logging Measured From (Name of Logging Elevation Reference)
APD  .F          13.500000               :Elevation of Depth Reference (LMF) above Permanent Datum
#-----------------------------------------------------------------------------
~CURVE INFORMATION
#MNEM.UNIT   API CODE                                  DESCRIPTION
#---- -----  --------                                  -----------------------
DEPT .F                                                :DEPTH (BOREHOLE) {F10.1}
CIRN_FIL.                                              :Capture to Inelastic Ratio Near Filtered {F13.4}
CIRF_FIL.                                              :Capture to Inelastic Ratio Far Filtered {F13.4}
INND_FIL.HZ                                            :Gross Inelastic Count Rate Near Detector Filtered {F13.4}
INFD_FIL.HZ                                            :Gross Inelastic Count Rate Far Detector Filtered {F13.4}
IRAT .                                                 :Inelastic Ratio {F13.4}
IRAT_FIL.                                              :Inelastic Ratio Filtered {F13.4}
SIGM .CU                                               :Formation Sigma (Neutron Capture Cross Section) {F13.4}
TSCN_FIL.HZ                                            :Total Selected Count Rate Near Detector Filtered {F13.4}
TSCF_FIL.HZ                                            :Total Selected Count Rate Far Detector Filtered {F13.4}
TRAT .                                                 :Near/Far Capture Ratio {F13.4}
TRAT_FIL.                                              :Capture Ratio Filtered {F13.4}
TPHI .CFCF                                             :Thermal Decay Porosity {F13.4}
GR   .GAPI                                             :Gamma Ray {F13.4}
WTEP .DEGF                                             :Well Temperature {F13.4}
CBL  .MV                                               :CBL Amplitude {F13.4}
CCLD .V                                                :CCL Discriminated Amplitude {F13.4}
#-----------------------------------------------------------------------------
# 
#     DEPT      CIRN_FIL     CIRF_FIL     INND_FIL     INFD_FIL       IRAT       IRAT_FIL       SIGM       TSCN_FIL     TSCF_FIL       TRAT       TRAT_FIL       TPHI         GR           WTEP         CBL          CCLD
#
~A  
# ...
   10694.0       0.5893       1.6058    7263.3198    3682.3381       0.5095       0.5070      16.8683    4247.4849    5949.0229       0.7139       0.7140       0.0731      72.3451     209.9822       3.9966       0.0000
   10693.5       0.5933       1.5967    7260.7461    3739.1941       0.5163       0.5150      16.9382    4240.1348    5958.0962       0.7112       0.7117       0.0711      74.2861     209.9659       3.6874       0.0000
   10693.0       0.5877       1.5637    7260.5991    3721.1021       0.5192       0.5125      17.6145    4213.0576    5789.0293       0.7099       0.7289       0.0807      76.8856     209.9510       3.7655       0.0000
   10692.5       0.5802       1.5165    7266.5215    3680.8369       0.5020       0.5065      19.0283    4147.7979    5567.0332       0.7656       0.7462       0.0878      67.4862     209.9353       3.1713       0.0000
   10692.0       0.5583       1.4822    7194.1592    3616.0938       0.4984       0.5027      19.1326    4139.5693    5352.9512       0.7632       0.7734       0.1067      61.6662     209.9172       3.1464       0.0000
   10691.5       0.5805       1.4792    7215.7720    3629.0637       0.5077       0.5030      18.2658    4218.8379    5450.0259       0.7915       0.7743       0.1101      54.5881     209.9056       3.1117       0.0000
   10691.0       0.5880       1.5507    7256.0122    3656.8765       0.5029       0.5040      16.8384    4365.2710    5690.2764       0.7682       0.7682       0.1107      51.1265     209.8975       2.8680       0.0000
   10690.5       0.6140       1.6140    7364.9893    3667.5781       0.5015       0.4980      16.5814    4467.5400    5868.2617       0.7449       0.7616       0.1068      52.1845     209.8908       3.0870       0.0000
   10690.0       0.6019       1.5834    7334.7295    3637.4402       0.4896       0.4959      18.5989    4403.1626    5831.1992       0.7716       0.7552       0.0950      56.7136     209.8908       2.8448       0.0000
   10689.5       0.5830       1.5191    7231.2305    3566.9998       0.4967       0.4933      20.9273    4184.8638    5382.5332       0.7490       0.7798       0.1048      63.3712     209.8883       2.9423       0.0000
   10689.0       0.5575       1.3744    7122.1699    3514.3589       0.4936       0.4934      23.1616    3947.6936    4972.2271       0.8188       0.7971       0.1092      64.3418     209.8813       2.7512       0.0000
   10688.5       0.5333       1.3450    7096.0063    3480.9348       0.4899       0.4906      23.0028    3827.5640    4631.5991       0.8235       0.8265       0.1314      67.3007     209.8736       2.9189       0.0000
   10688.0       0.5403       1.3130    7142.7466    3487.8718       0.4881       0.4883      22.5231    3867.1282    4676.2310       0.8371       0.8271       0.1332      67.9477     209.8654       2.7226       0.0000
   10687.5       0.5586       1.3970    7170.0820    3520.5896       0.4869       0.4910      21.4103    4014.2366    4866.8110       0.8207       0.8252       0.1358      65.8728     209.8544       2.4536       0.0000
   10687.0       0.5858       1.4549    7188.6807    3580.9199       0.4980       0.4981      20.2560    4152.9375    5229.9355       0.8177       0.7961       0.1182      62.4471     209.8454       2.5272       0.0000
   10686.5       0.5900       1.5261    7196.7466    3637.4321       0.5095       0.5054      18.8309    4280.9985    5625.5791       0.7499       0.7635       0.0997      62.7706     209.8370       3.0405       0.0000
   10686.0       0.6060       1.6350    7206.2388    3670.6699       0.5088       0.5094      17.6323    4374.9512    5988.9409       0.7228       0.7310       0.0802      57.5924     209.8271       2.9132       0.0000
   10685.5       0.6367       1.7390    7230.8564    3681.7930       0.5099       0.5092      17.2389    4492.2822    6296.2222       0.7202       0.7139       0.0695      59.8569     209.8204       2.7579       0.0000
   10685.0       0.6488       1.7714    7224.1094    3668.8953       0.5089       0.5079      17.5579    4544.0513    6308.2041       0.6986       0.7210       0.0731      61.3364     209.8170       2.4429       0.0000
   10684.5       0.6395       1.6994    7200.4541    3619.6970       0.5048       0.5027      18.5694    4505.1860    6054.5752       0.7442       0.7472       0.0880      65.8655     209.8146       2.3758       0.0000
   10684.0       0.6132       1.5677    7046.4624    3539.8770       0.4943       0.5024      20.2505    4329.1538    5558.3638       0.7988       0.7805       0.1054      69.8002     209.8081       2.2361       0.0000
   10683.5       0.5937       1.4422    6972.7319    3459.7000       0.5082       0.4963      21.0770    4167.2354    5122.0884       0.7986       0.8147       0.1277      72.5695     209.7985       1.8038       0.0000
   10683.0       0.5792       1.4229    6960.1963    3439.0361       0.4864       0.4942      20.9048    4038.1943    4946.0337       0.8468       0.8171       0.1301      69.3397     209.7867       1.6729       0.0000
   10682.5       0.5634       1.4377    7073.4116    3450.6572       0.4881       0.4878      20.4444    4025.1543    4943.0986       0.8058       0.8150       0.1303      72.5232     209.7702       1.8251       0.0000
   10682.0       0.5666       1.4701    7148.2085    3495.6997       0.4890       0.4890      20.4793    4051.9744    5073.4165       0.7923       0.7987       0.1178      71.2291     209.7528       1.7838       0.0000
   10681.5       0.5723       1.4554    7137.3550    3536.1675       0.4900       0.4955      20.2124    4083.4827    5149.6572       0.7981       0.7930       0.1146      68.2702     209.7365       1.9415       0.0000
   10681.0       0.5792       1.4498    7117.8218    3555.6536       0.5076       0.4996      20.0690    4101.0005    5210.2725       0.7885       0.7872       0.1110      68.4598     209.7250       1.8525       0.0000
   10680.5       0.5772       1.4781    7092.1504    3562.9626       0.5013       0.5024      19.9611    4094.6729    5276.4395       0.7750       0.7761       0.1034      67.4841     209.7167       1.8883       0.0000
   10680.0       0.5709       1.4978    7166.7979    3563.7842       0.4983       0.4973      20.4040    4093.6770    5334.4746       0.7649       0.7674       0.0955      67.8076     209.7101       1.8119       0.0000
   10679.5       0.5598       1.4955    7192.3691    3567.4485       0.4923       0.4960      20.9738    4105.1655    5367.6294       0.7624       0.7648       0.0913      65.4092     209.7014       1.6355       0.0000
   10679.0       0.5680       1.5275    7172.0947    3559.2981       0.4974       0.4963      20.5159    4116.1460    5350.5728       0.7671       0.7693       0.0966      64.4334     209.6913       1.6426       0.0000
   10678.5       0.5756       1.5169    7102.8711    3506.7354       0.4992       0.4937      20.7021    4138.7495    5290.3096       0.7785       0.7826       0.1059      67.0225     209.6847       1.7392       0.0000
   10678.0       0.5869       1.5286    7065.2935    3472.2263       0.4845       0.4915      20.7171    4142.9761    5173.1597       0.8021       0.8012       0.1204      70.2576     209.6774       1.7662       0.0000
   10677.5       0.5899       1.4391    7009.7964    3431.6013       0.4907       0.4896      21.9843    4120.6665    4960.8018       0.8231       0.8319       0.1397      70.8192     209.6686       1.7005       0.0000
   10677.0       0.5902       1.3450    6923.8169    3415.3633       0.4935       0.4933      23.6076    4064.6055    4656.6519       0.8707       0.8759       0.1686      73.8646     209.6592       1.8829       0.0000
   10676.5       0.5873       1.2646    6823.2324    3371.9778       0.4957       0.4942      25.0482    3976.3259    4310.7285       0.9340       0.9250       0.2030      80.0186     209.6523       2.3584       0.0000
   10676.0       0.5708       1.1926    6766.2778    3334.1160       0.4934       0.4927      26.5621    3891.7095    4055.5867       0.9703       0.9603       0.2265      79.8279     209.6488       2.6634       0.0000
