~VERSION INFORMATION
VERS.           2.0   :CWLS Log ASCII Standard - VERSION 2.0
WRAP.           NO    :One Line per depth step
PROD.  Schlumberger   :LAS Producer
PROG.  DLIS to ASCII 2.2                               :LAS Program name and version
CREA.        2015/01/05 09:49                          :LAS Creation date {YYYY/MM/DD hh:mm}
SOURCE.     JF 20-5_Main Pass.DLIS                     :DLIS File Name
FILE-ID.     SCMT_RST_PSP_012LUP                       :File Identification Number
#--------------------------------------------------
~WELL INFORMATION
#MNEM.UNIT      DATA             DESCRIPTION
#---- ------ --------------   -----------------------------
STRT .F        12063.0       :START DEPTH     
STOP .F         6915.0       :STOP DEPTH     
STEP .F           -0.5       :STEP     
NULL .          -999.25      :NULL VALUE
COMP .        Encana Oil & Gas (USA) Inc.              :COMPANY
WELL .        Jonah Federal 20-5                       :WELL
FLD  .        Jonah                                    :FIELD
LOC  .        SHL: Lot-6, 690' FNL & 2203' FEL         :LOCATION
CNTY .        Sublette                                 :COUNTY
STAT .        Wyoming                                  :STATE
CTRY .                                                 :COUNTRY
API  .        49035281690000                           :API NUMBER
UWI  .        49035281690000                           :UNIQUE WELL ID
DATE .        02-Jan-2015                              :LOG DATE {DD-MMM-YYYY}
SRVC .        Schlumberger                             :SERVICE COMPANY
LATI .DEG                                              :LATITUDE
LONG .DEG                                              :LONGITUDE
GDAT .                                                 :GeoDetic Datum
#-----------------------------------------------------------------------------
~PARAMETER INFORMATION
#MNEM.UNIT    VALUE                      DESCRIPTION
#---- -----   --------------------       ------------------------
RUN  .          1                        :RUN NUMBER
PDAT .        GROUND LEVEL               :Permanent Datum
EPD  .F         7141.000000              :Elevation of Permanent Datum above Mean Sea Level
EPD  .F         7141.000000              :Elevation of tool zero above Mean Sea Level
LMF  .          KELLY BUSHING            :Logging Measured From (Name of Logging Elevation Reference)
APD  .F          13.500000               :Elevation of Depth Reference (LMF) above Permanent Datum
#-----------------------------------------------------------------------------
~CURVE INFORMATION
#MNEM.UNIT   API CODE                                  DESCRIPTION
#---- -----  --------                                  -----------------------
DEPT .F                                                :DEPTH (BOREHOLE) {F10.1}
CIRN_FIL.                                              :Capture to Inelastic Ratio Near Filtered {F13.4}
CIRF_FIL.                                              :Capture to Inelastic Ratio Far Filtered {F13.4}
INND_FIL.HZ                                            :Gross Inelastic Count Rate Near Detector Filtered {F13.4}
INFD_FIL.HZ                                            :Gross Inelastic Count Rate Far Detector Filtered {F13.4}
IRAT .                                                 :Inelastic Ratio {F13.4}
IRAT_FIL.                                              :Inelastic Ratio Filtered {F13.4}
SIGM .CU                                               :Formation Sigma (Neutron Capture Cross Section) {F13.4}
TSCN_FIL.HZ                                            :Total Selected Count Rate Near Detector Filtered {F13.4}
TSCF_FIL.HZ                                            :Total Selected Count Rate Far Detector Filtered {F13.4}
TRAT .                                                 :Near/Far Capture Ratio {F13.4}
TRAT_FIL.                                              :Capture Ratio Filtered {F13.4}
TPHI .CFCF                                             :Thermal Decay Porosity {F13.4}
GR   .GAPI                                             :Gamma Ray {F13.4}
WTEP .DEGF                                             :Well Temperature {F13.4}
CBL  .MV                                               :CBL Amplitude {F13.4}
CCLD .V                                                :CCL Discriminated Amplitude {F13.4}
#-----------------------------------------------------------------------------
# 
#     DEPT      CIRN_FIL     CIRF_FIL     INND_FIL     INFD_FIL       IRAT       IRAT_FIL       SIGM       TSCN_FIL     TSCF_FIL       TRAT       TRAT_FIL       TPHI         GR           WTEP         CBL          CCLD
#
~A  
# ...
    8640.5       0.6463       1.6854    7209.0239    3359.7783       0.4583       0.4662      18.8489    4728.5518    5697.1797       0.8275       0.8310       0.1531      62.4853     183.3287       6.2421       0.0000
    8640.0       0.6637       1.6341    7046.4702    3299.9548       0.4755       0.4685      20.2524    4705.1147    5464.9258       0.8668       0.8619       0.1721      61.5269     183.3222       5.5387       0.0000
    8639.5       0.6705       1.6234    6869.2241    3259.6577       0.4716       0.4745      20.6772    4657.4883    5233.0879       0.8912       0.8907       0.1939      60.0331     183.3156       5.8663       0.0000
    8639.0       0.6692       1.5446    6780.2109    3219.5313       0.4765       0.4749      21.0566    4523.6621    5034.5430       0.9139       0.8986       0.1992      60.6380     183.3121       7.5296       0.0000
    8638.5       0.6343       1.4837    6727.8584    3231.9841       0.4765       0.4804      20.8703    4330.8555    4832.3599       0.8905       0.8958       0.1978      61.9867     183.3062      10.2809       0.0000
    8638.0       0.6086       1.4180    6732.2168    3222.6018       0.4882       0.4787      21.1827    4183.7983    4711.4761       0.8831       0.8880       0.1899      67.1649     183.2996       9.7711       0.0000
    8637.5       0.6030       1.4484    6758.9087    3254.3052       0.4714       0.4815      21.4894    4138.0054    4642.7803       0.8903       0.8913       0.1912      69.0937     183.2945       8.4059       0.0000
    8637.0       0.6122       1.4272    6789.2075    3242.4148       0.4849       0.4776      22.3680    4211.6465    4642.0645       0.9005       0.9073       0.2011      71.6971     183.2910      10.3824       0.0000
    8636.5       0.6551       1.4612    6770.0688    3257.3979       0.4764       0.4811      22.9590    4286.0781    4632.8564       0.9312       0.9252       0.2134      77.2389     183.2847      11.0279       0.0000
    8636.0       0.6611       1.4651    6726.2100    3200.5291       0.4821       0.4758      23.9939    4347.0117    4578.8335       0.9439       0.9496       0.2299      78.1230     183.2758       9.7341       0.0000
    8635.5       0.6691       1.4490    6703.6045    3170.0195       0.4689       0.4729      24.4657    4333.2822    4515.1987       0.9738       0.9599       0.2365      75.9037     183.2723       9.5643       0.0000
    8635.0       0.6335       1.4237    6686.6724    3140.5693       0.4676       0.4697      24.8349    4300.8877    4443.0342       0.9619       0.9680       0.2421      73.3157     183.2686       9.5636       0.0000
    8634.5       0.6420       1.3824    6640.5195    3133.5874       0.4726       0.4719      25.8309    4248.2080    4435.7349       0.9683       0.9578       0.2297      72.9458     183.2620       8.9909       0.0000
    8634.0       0.6486       1.4471    6584.3076    3106.6487       0.4756       0.4718      25.3577    4221.0386    4431.4580       0.9432       0.9526       0.2269      71.3283     183.2561       7.2770       0.0000
    8633.5       0.6512       1.4587    6578.8965    3122.8689       0.4673       0.4746      24.7999    4204.5562    4504.4971       0.9463       0.9337       0.2127      69.1091     183.2498       6.4410       0.0000
    8633.0       0.6374       1.4665    6670.0396    3188.8193       0.4810       0.4780      22.6436    4221.0615    4588.0273       0.9117       0.9205       0.2095      65.3134     183.2439       8.1633       0.0000
    8632.5       0.6287       1.4314    6807.1211    3310.8418       0.4856       0.4863      21.7317    4255.4419    4723.3335       0.9035       0.9011       0.1969      59.3080     183.2381       3.6574       0.0000
    8632.0       0.6208       1.4109    6969.9033    3410.6721       0.4923       0.4893      20.8537    4267.5293    4900.6904       0.8882       0.8721       0.1772      53.7492     183.2300       3.2478       0.6310
    8631.5       0.6066       1.4634    7114.7051    3440.1450       0.4901       0.4837      19.7696    4265.4170    5144.3560       0.8246       0.8312       0.1491      54.0861     183.2207       3.7949       0.6823
    8631.0       0.5887       1.5534    7207.3228    3416.5457       0.4686       0.4741      19.6153    4264.9004    5341.3789       0.7809       0.7989       0.1241      54.8115     183.2125       5.2405       0.1955
    8630.5       0.6080       1.5997    7182.3237    3354.3491       0.4636       0.4670      20.1037    4367.7876    5420.0415       0.7912       0.8060       0.1272      58.0600     183.2054       5.3424      -0.1255
    8630.0       0.6485       1.6043    7066.7949    3340.5581       0.4689       0.4729      21.2938    4484.3306    5315.6011       0.8458       0.8446       0.1523      68.0290     183.1992       3.0897       0.0000
    8629.5       0.6657       1.5401    6908.8721    3328.0977       0.4862       0.4819      21.8176    4597.2104    5160.1035       0.8968       0.8921       0.1872      73.2724     183.1944       3.9505       0.0000
    8629.0       0.6804       1.5105    6789.8911    3319.8110       0.4906       0.4890      22.3713    4602.2534    4986.5557       0.9338       0.9233       0.2096      76.0204     183.1879       5.0468       0.0000
    8628.5       0.6793       1.4778    6710.9678    3290.6250       0.4901       0.4903      22.8372    4626.1904    4889.0176       0.9393       0.9464       0.2267      73.8156     183.1817       4.2695       0.0000
    8628.0       0.7023       1.4818    6702.4009    3270.8887       0.4904       0.4880      23.2888    4651.8232    4842.0229       0.9660       0.9608       0.2371      68.3025     183.1779       3.6376       0.0000
    8627.5       0.6992       1.4782    6689.8330    3277.8174       0.4837       0.4900      23.1538    4675.2554    4817.2480       0.9771       0.9705       0.2460      69.0598     183.1718       3.5388       0.0000
    8627.0       0.6966       1.4562    6686.3140    3277.4658       0.4960       0.4902      23.1561    4625.0479    4751.4150       0.9685       0.9734       0.2484      69.3752     183.1658       4.1074       0.0000
    8626.5       0.6761       1.4270    6660.8301    3270.0432       0.4910       0.4909      22.9741    4528.5908    4678.3594       0.9746       0.9680       0.2441      66.9372     183.1609       3.7266       0.0000
    8626.0       0.6424       1.4266    6695.9497    3230.8186       0.4859       0.4826      23.3715    4405.7842    4595.2690       0.9608       0.9587       0.2342      69.1565     183.1555       3.7216       0.0000
    8625.5       0.6243       1.4329    6807.6729    3208.1245       0.4709       0.4715      23.9627    4349.3799    4566.2451       0.9406       0.9525       0.2263      74.3326     183.1503       3.4552       0.0000
    8625.0       0.6177       1.4276    6892.2534    3224.9360       0.4576       0.4680      24.4711    4336.3208    4555.5342       0.9561       0.9519       0.2240      69.1544     183.1444       3.0616       0.0000
    8624.5       0.6366       1.4027    6967.9092    3272.7771       0.4753       0.4697      24.0697    4380.3237    4573.1216       0.9589       0.9578       0.2307      68.5011     183.1381       3.0122       0.0000
    8624.0       0.6283       1.3788    6978.5073    3337.0986       0.4761       0.4782      23.8893    4386.9575    4606.4033       0.9585       0.9524       0.2267      65.7284     183.1298       3.0466       0.0000
    8623.5       0.6222       1.3700    7048.4912    3393.8787       0.4831       0.4815      23.0765    4380.2915    4679.3784       0.9399       0.9364       0.2166      68.3248     183.1215       3.7729       0.0000
    8623.0       0.6115       1.3807    7097.0581    3439.9597       0.4852       0.4847      22.9614    4368.2729    4831.8071       0.9109       0.9051       0.1914      69.2089     183.1129       5.8425       0.0000
    8622.5       0.6102       1.4247    7152.0542    3465.9702       0.4858       0.4846      21.4663    4380.5562    5022.1084       0.8647       0.8732       0.1715      75.8666     183.1061       6.1714       0.0000
