~VERSION INFORMATION
VERS.           2.0   :CWLS Log ASCII Standard - VERSION 2.0
WRAP.           NO    :One Line per depth step
PROD.  Schlumberger   :LAS Producer
PROG.  DLIS to ASCII 2.2                               :LAS Program name and version
CREA.        2015/01/05 09:49                          :LAS Creation date {YYYY/MM/DD hh:mm}
SOURCE.     JF 20-5_Main Pass.DLIS                     :DLIS File Name
FILE-ID.     SCMT_RST_PSP_012LUP                       :File Identification Number
#--------------------------------------------------
~WELL INFORMATION
#MNEM.UNIT      DATA             DESCRIPTION
#---- ------ --------------   -----------------------------
STRT .F        12063.0       :START DEPTH     
STOP .F         6915.0       :STOP DEPTH     
STEP .F           -0.5       :STEP     
NULL .          -999.25      :NULL VALUE
COMP .        Encana Oil & Gas (USA) Inc.              :COMPANY
WELL .        Jonah Federal 20-5                       :WELL
FLD  .        Jonah                                    :FIELD
LOC  .        SHL: Lot-6, 690' FNL & 2203' FEL         :LOCATION
CNTY .        Sublette                                 :COUNTY
STAT .        Wyoming                                  :STATE
CTRY .                                                 :COUNTRY
API  .        49035281690000                           :API NUMBER
UWI  .        49035281690000                           :UNIQUE WELL ID
DATE .        02-Jan-2015                              :LOG DATE {DD-MMM-YYYY}
SRVC .        Schlumberger                             :SERVICE COMPANY
LATI .DEG                                              :LATITUDE
LONG .DEG                                              :LONGITUDE
GDAT .                                                 :GeoDetic Datum
#-----------------------------------------------------------------------------
~PARAMETER INFORMATION
#MNEM.UNIT    VALUE                      DESCRIPTION
#---- -----   --------------------       ------------------------
RUN  .          1                        :RUN NUMBER
PDAT .        GROUND LEVEL               :Permanent Datum
EPD  .F         7141.000000              :Elevation of Permanent Datum above Mean Sea Level
EPD  .F         7141.000000              :Elevation of tool zero above Mean Sea Level
LMF  .          KELLY BUSHING            :Logging Measured From (Name of Logging Elevation Reference)
APD  .F          13.500000               :Elevation of Depth Reference (LMF) above Permanent Datum
#-----------------------------------------------------------------------------
~CURVE INFORMATION
#MNEM.UNIT   API CODE                                  DESCRIPTION
#---- -----  --------                                  -----------------------
DEPT .F                                                :DEPTH (BOREHOLE) {F10.1}
CIRN_FIL.                                              :Capture to Inelastic Ratio Near Filtered {F13.4}
CIRF_FIL.                                              :Capture to Inelastic Ratio Far Filtered {F13.4}
INND_FIL.HZ                                            :Gross Inelastic Count Rate Near Detector Filtered {F13.4}
INFD_FIL.HZ                                            :Gross Inelastic Count Rate Far Detector Filtered {F13.4}
IRAT .                                                 :Inelastic Ratio {F13.4}
IRAT_FIL.                                              :Inelastic Ratio Filtered {F13.4}
SIGM .CU                                               :Formation Sigma (Neutron Capture Cross Section) {F13.4}
TSCN_FIL.HZ                                            :Total Selected Count Rate Near Detector Filtered {F13.4}
TSCF_FIL.HZ                                            :Total Selected Count Rate Far Detector Filtered {F13.4}
TRAT .                                                 :Near/Far Capture Ratio {F13.4}
TRAT_FIL.                                              :Capture Ratio Filtered {F13.4}
TPHI .CFCF                                             :Thermal Decay Porosity {F13.4}
GR   .GAPI                                             :Gamma Ray {F13.4}
WTEP .DEGF                                             :Well Temperature {F13.4}
CBL  .MV                                               :CBL Amplitude {F13.4}
CCLD .V                                                :CCL Discriminated Amplitude {F13.4}
#-----------------------------------------------------------------------------
# 
#     DEPT      CIRN_FIL     CIRF_FIL     INND_FIL     INFD_FIL       IRAT       IRAT_FIL       SIGM       TSCN_FIL     TSCF_FIL       TRAT       TRAT_FIL       TPHI         GR           WTEP         CBL          CCLD
#
~A  
# ...
    7956.0       0.6201       1.4072    7123.4546    3352.5759       0.4708       0.4706      22.2185    4441.8730    4823.6348       0.9181       0.9209       0.2134      80.9076     173.8503      14.1868       0.0000
    7955.5       0.6330       1.4618    7056.7129    3370.7158       0.4711       0.4778      22.2915    4535.8115    4941.2231       0.9182       0.9180       0.2100      79.2885     173.8416      13.3836       0.0000
    7955.0       0.6659       1.4855    6982.3145    3369.5503       0.4916       0.4827      22.9042    4687.8794    5259.0864       0.9176       0.8936       0.1876      71.1919     173.8345      14.4597       0.0000
    7954.5       0.7162       1.6488    6900.5254    3369.4788       0.4855       0.4883      20.7678    4982.4229    5663.8530       0.8450       0.8811       0.1845      66.9824     173.8296      13.9001       0.0000
    7954.0       0.8133       1.8488    7041.2642    3394.5896       0.4878       0.4823      17.5276    5603.1401    6410.6855       0.8807       0.8723       0.1879      63.6607     173.8211      13.4630       0.0000
    7953.5       0.8759       2.1649    7224.0713    3515.7690       0.4735       0.4866      13.6974    6239.7769    7505.1582       0.8911       0.8403       0.1771      60.7464     173.8156      15.7447       0.0000
    7953.0       0.9098       2.3695    7433.5723    3641.5520       0.4985       0.4898      11.9398    6695.6699    8564.8525       0.7492       0.7893       0.1442      66.7978     173.8128      18.1153       0.0000
    7952.5       0.9098       2.5016    7496.8721    3739.8267       0.4972       0.4989      12.1441    6759.3843    9222.6807       0.7276       0.7331       0.1007      69.9955     173.8058      23.3879       0.0000
    7952.0       0.8989       2.4388    7521.0234    3727.8230       0.5008       0.4957      12.7916    6666.6479    9200.7871       0.7225       0.7246       0.0919      75.6775     173.7984      27.1205       0.0000
    7951.5       0.8737       2.3950    7519.3354    3687.0691       0.4890       0.4904      13.5091    6487.0259    8873.5400       0.7236       0.7315       0.0941      74.8767     173.7894      31.7994       0.0000
    7951.0       0.8365       2.3120    7536.9077    3631.1252       0.4813       0.4818      13.9768    6333.0527    8607.6885       0.7485       0.7360       0.0954      69.6441     173.7788      35.7614       0.0000
    7950.5       0.8333       2.3482    7549.0835    3615.2324       0.4751       0.4789      13.8605    6335.3389    8530.7803       0.7359       0.7427       0.1005      58.4117     173.7717      40.5549       0.0000
    7950.0       0.8693       2.4403    7581.9839    3618.0273       0.4803       0.4772      13.2305    6628.5713    8822.9453       0.7435       0.7507       0.1084      53.3456     173.7669      45.6711       0.0000
    7949.5       0.9240       2.6076    7554.3501    3669.4863       0.4762       0.4858      12.5678    7026.3418    9406.0303       0.7727       0.7477       0.1085      50.8791     173.7606      46.6362       0.0000
    7949.0       0.9837       2.7225    7523.4214    3703.4138       0.5010       0.4924      11.7812    7398.1860   10016.1016       0.7268       0.7399       0.1057      48.0066     173.7551      42.4425       0.0000
    7948.5       1.0139       2.8023    7487.1353    3746.2825       0.4999       0.5004      11.3931    7567.5996   10512.5156       0.7203       0.7200       0.0929      46.4392     173.7528      37.4908       0.0000
    7948.0       1.0146       2.8421    7537.0708    3741.2805       0.5002       0.4964      11.0559    7686.1826   10775.1172       0.7129       0.7134       0.0894      49.2084     173.7508      33.3026       0.0000
    7947.5       1.0231       2.9578    7577.1484    3744.4734       0.4892       0.4942      10.5979    7764.1982   11037.9902       0.7071       0.7036       0.0842      48.1220     173.7491      29.0631       0.0000
    7947.0       1.0297       3.0027    7596.3008    3731.2693       0.4932       0.4912      10.5835    7851.6411   11192.6885       0.6908       0.7016       0.0828      47.6296     173.7480      29.4058       0.0000
    7946.5       1.0434       3.0324    7561.6714    3737.2297       0.4911       0.4942      10.3594    7841.0542   11181.6006       0.7068       0.7013       0.0832      51.7973     173.7450      29.7996       0.0000
    7946.0       1.0283       2.8891    7543.6372    3731.2859       0.4984       0.4946      10.4104    7785.6201   11009.3086       0.7064       0.7072       0.0870      54.4504     173.7385      31.2163       0.0000
    7945.5       1.0197       2.8581    7473.7661    3745.0249       0.4944       0.5012      10.6156    7629.7866   10821.6846       0.7085       0.7050       0.0847      57.1586     173.7296      33.8382       0.0000
    7945.0       1.0129       2.8069    7424.9688    3722.1831       0.5107       0.5014      10.8893    7510.4038   10530.9258       0.7002       0.7135       0.0896      61.0444     173.7206      32.6813       0.0000
    7944.5       0.9973       2.7906    7344.3872    3713.7280       0.4990       0.5057      11.5095    7380.7563   10224.9443       0.7318       0.7223       0.0936      60.6745     173.7137      30.7186       0.0000
    7944.0       0.9904       2.6841    7361.4893    3671.9714       0.5073       0.4989      11.5646    7358.1738    9959.7236       0.7348       0.7389       0.1049      59.3792     173.7085      33.0995       0.0000
    7943.5       0.9886       2.7213    7383.7710    3671.3335       0.4903       0.4973      11.6420    7363.1260   10042.8086       0.7499       0.7335       0.1009      56.4441     173.7008      32.8440       0.0000
    7943.0       0.9961       2.7866    7421.3379    3664.5024       0.4942       0.4938      11.2098    7443.1899   10258.8145       0.7157       0.7260       0.0974      53.8585     173.6915      32.1636       0.0000
    7942.5       1.0213       2.8842    7408.4268    3693.5613       0.4968       0.4986      11.2079    7492.1641   10527.0596       0.7125       0.7117       0.0877      49.2289     173.6860      29.8464       0.0000
    7942.0       1.0157       2.8713    7309.0850    3692.5518       0.5047       0.5053      11.1909    7462.7881   10630.1846       0.7071       0.7021       0.0818      49.4448     173.6803      29.3626       0.0000
    7941.5       1.0242       2.9170    7232.6963    3631.1548       0.5144       0.5020      11.7986    7180.9673   10097.4082       0.6867       0.7130       0.0879      55.8191     173.6741      24.6705       0.0000
    7941.0       0.9123       2.7074    7130.3647    3506.5630       0.4870       0.4917      12.8864    6689.1206    8984.0439       0.7452       0.7534       0.1138      63.2249     173.6693      20.9731       0.0000
    7940.5       0.8027       2.2606    7083.4697    3382.8975       0.4737       0.4775      17.0446    5841.9126    7460.8711       0.8283       0.7859       0.1218      64.5818     173.6656      14.9032       0.0000
    7940.0       0.6748       1.6937    7004.8955    3302.3171       0.4718       0.4714      21.0419    5116.2827    5944.7661       0.7842       0.8776       0.1803      70.5067     173.6632      12.8117       0.0000
    7939.5       0.6454       1.3311    6974.0181    3280.9536       0.4687       0.4704      25.0230    4621.5967    5107.8809       1.0203       0.9190       0.1991      70.8299     173.6583      11.1957       0.0000
    7939.0       0.6530       1.3629    6968.6489    3268.6470       0.4708       0.4691      23.5487    4590.4326    4841.9434       0.9525       0.9523       0.2310      62.6928     173.6523      11.9590       0.0000
    7938.5       0.6812       1.5600    6967.3125    3271.5469       0.4676       0.4696      21.6909    4699.3726    5250.7900       0.8842       0.8976       0.1933      60.4011     173.6456      12.7584       0.0000
    7938.0       0.6947       1.7647    6953.3491    3260.5410       0.4703       0.4689      19.6027    4740.7817    5602.4199       0.8562       0.8475       0.1617      60.3724     173.6405      12.5660       0.0000
