~VERSION INFORMATION
VERS.           2.0   :CWLS Log ASCII Standard - VERSION 2.0
WRAP.           NO    :One Line per depth step
PROD.  Schlumberger   :LAS Producer
PROG.  DLIS to ASCII 2.2                               :LAS Program name and version
CREA.        2015/01/05 09:49                          :LAS Creation date {YYYY/MM/DD hh:mm}
SOURCE.     JF 20-5_Main Pass.DLIS                     :DLIS File Name
FILE-ID.     SCMT_RST_PSP_012LUP                       :File Identification Number
#--------------------------------------------------
~WELL INFORMATION
#MNEM.UNIT      DATA             DESCRIPTION
#---- ------ --------------   -----------------------------
STRT .F        12063.0       :START DEPTH     
STOP .F         6915.0       :STOP DEPTH     
STEP .F           -0.5       :STEP     
NULL .          -999.25      :NULL VALUE
COMP .        Encana Oil & Gas (USA) Inc.              :COMPANY
WELL .        Jonah Federal 20-5                       :WELL
FLD  .        Jonah                                    :FIELD
LOC  .        SHL: Lot-6, 690' FNL & 2203' FEL         :LOCATION
CNTY .        Sublette                                 :COUNTY
STAT .        Wyoming                                  :STATE
CTRY .                                                 :COUNTRY
API  .        49035281690000                           :API NUMBER
UWI  .        49035281690000                           :UNIQUE WELL ID
DATE .        02-Jan-2015                              :LOG DATE {DD-MMM-YYYY}
SRVC .        Schlumberger                             :SERVICE COMPANY
LATI .DEG                                              :LATITUDE
LONG .DEG                                              :LONGITUDE
GDAT .                                                 :GeoDetic Datum
#-----------------------------------------------------------------------------
~PARAMETER INFORMATION
#MNEM.UNIT    VALUE                      DESCRIPTION
#---- -----   --------------------       ------------------------
RUN  .          1                        :RUN NUMBER
PDAT .        GROUND LEVEL               :Permanent Datum
EPD  .F         7141.000000              :Elevation of Permanent Datum above Mean Sea Level
EPD  .F         7141.000000              :Elevation of tool zero above Mean Sea Level
LMF  .          KELLY BUSHING            :Logging Measured From (Name of Logging Elevation Reference)
APD  .F          13.500000               :Elevation of Depth Reference (LMF) above Permanent Datum
#-----------------------------------------------------------------------------
~CURVE INFORMATION
#MNEM.UNIT   API CODE                                  DESCRIPTION
#---- -----  --------                                  -----------------------
DEPT .F                                                :DEPTH (BOREHOLE) {F10.1}
CIRN_FIL.                                              :Capture to Inelastic Ratio Near Filtered {F13.4}
CIRF_FIL.                                              :Capture to Inelastic Ratio Far Filtered {F13.4}
INND_FIL.HZ                                            :Gross Inelastic Count Rate Near Detector Filtered {F13.4}
INFD_FIL.HZ                                            :Gross Inelastic Count Rate Far Detector Filtered {F13.4}
IRAT .                                                 :Inelastic Ratio {F13.4}
IRAT_FIL.                                              :Inelastic Ratio Filtered {F13.4}
SIGM .CU                                               :Formation Sigma (Neutron Capture Cross Section) {F13.4}
TSCN_FIL.HZ                                            :Total Selected Count Rate Near Detector Filtered {F13.4}
TSCF_FIL.HZ                                            :Total Selected Count Rate Far Detector Filtered {F13.4}
TRAT .                                                 :Near/Far Capture Ratio {F13.4}
TRAT_FIL.                                              :Capture Ratio Filtered {F13.4}
TPHI .CFCF                                             :Thermal Decay Porosity {F13.4}
GR   .GAPI                                             :Gamma Ray {F13.4}
WTEP .DEGF                                             :Well Temperature {F13.4}
CBL  .MV                                               :CBL Amplitude {F13.4}
CCLD .V                                                :CCL Discriminated Amplitude {F13.4}
#-----------------------------------------------------------------------------
# 
#     DEPT      CIRN_FIL     CIRF_FIL     INND_FIL     INFD_FIL       IRAT       IRAT_FIL       SIGM       TSCN_FIL     TSCF_FIL       TRAT       TRAT_FIL       TPHI         GR           WTEP         CBL          CCLD
#
~A  
# ...
   11378.5       0.9020       1.9452    6329.4370    2988.6270       0.4689       0.4724      18.2472    5519.4692    5676.4580       0.9747       0.9735       0.2718      49.2730     221.2065       1.4669       0.0000
   11378.0       0.9231       1.8661    6164.1294    2946.4084       0.4823       0.4781      18.3765    5525.8823    5419.1846       1.0227       1.0216       0.3129      50.7567     221.1941       0.4800       0.0000
   11377.5       0.8676       1.6913    6206.0171    2966.4792       0.4829       0.4781      19.8360    5333.6089    5106.9956       1.0675       1.0449       0.3283      56.2057     221.1824       0.7630       0.0000
   11377.0       0.7623       1.5430    6496.6328    3031.9241       0.4691       0.4674      21.5614    4981.3960    4739.7080       1.0446       1.0503       0.3266      62.1732     221.1714       1.3625       0.7601
   11376.5       0.6595       1.3825    6797.1611    3096.2800       0.4501       0.4559      22.9642    4656.9419    4644.0952       1.0389       1.0038       0.2819      68.9173     221.1603       1.2593      -0.0056
   11376.0       0.6304       1.4509    7013.1343    3189.0742       0.4486       0.4547      23.2324    4515.3335    4711.7241       0.9278       0.9614       0.2449      73.9616     221.1449       1.2460      -0.0598
   11375.5       0.6747       1.4865    6982.2505    3228.0532       0.4655       0.4624      22.6643    4649.9419    4916.1533       0.9176       0.9457       0.2335      84.1242     221.1279       1.2239       0.0000
   11375.0       0.7210       1.5061    6872.7510    3256.3628       0.4732       0.4739      22.6790    4710.7598    4898.0649       0.9918       0.9622       0.2469      78.6751     221.1107       0.9697       0.0000
   11374.5       0.7057       1.4406    6810.6909    3256.5725       0.4831       0.4782      23.7182    4622.1812    4629.1372       0.9771       0.9998       0.2744      78.8543     221.0956       1.0325       0.0000
   11374.0       0.6493       1.3355    6841.8110    3256.5515       0.4783       0.4761      24.3608    4347.0913    4337.0410       1.0304       1.0033       0.2746      76.5486     221.0819       1.4886       0.0000
   11373.5       0.5718       1.3004    7014.7505    3279.9875       0.4669       0.4678      25.6304    4140.4658    4159.5576       1.0026       0.9954       0.2627      70.8573     221.0687       1.7134       0.0000
   11373.0       0.5503       1.2778    7163.5552    3332.4016       0.4582       0.4652      25.6159    4120.3369    4367.3237       0.9533       0.9469       0.2213      57.3659     221.0612       1.7251       0.0000
   11372.5       0.5783       1.4054    7280.3677    3439.0757       0.4705       0.4723      23.6828    4299.1802    4861.3506       0.8850       0.8901       0.1813      56.3448     221.0508       1.7415       0.0000
   11372.0       0.6322       1.5360    7304.5752    3541.8015       0.4883       0.4848      20.3997    4562.9072    5486.7090       0.8319       0.8353       0.1490      47.2832     221.0360       1.6100       0.0000
   11371.5       0.6545       1.6646    7356.7529    3628.4063       0.4957       0.4932      17.6301    4766.9609    5995.4819       0.7889       0.7965       0.1289      47.6600     221.0222       1.6020       0.0000
   11371.0       0.6573       1.7295    7417.7617    3701.3120       0.4956       0.4989      16.2093    4879.1392    6411.5972       0.7688       0.7622       0.1084      46.6937     221.0084       1.7021       0.0000
   11370.5       0.6603       1.7990    7483.1563    3737.9473       0.5056       0.4995      15.5839    4931.2456    6669.7539       0.7288       0.7400       0.0945      52.7444     220.9977       1.7396       0.0000
   11370.0       0.6527       1.8298    7486.6025    3735.7646       0.4974       0.4990      15.6598    4912.9321    6725.3096       0.7224       0.7307       0.0875      54.1354     220.9854       1.7004       0.0000
   11369.5       0.6435       1.7641    7430.2720    3671.5234       0.4940       0.4941      17.0468    4776.7832    6439.6128       0.7407       0.7428       0.0913      63.0178     220.9738       1.6920       0.0000
   11369.0       0.6226       1.6302    7308.8257    3581.5659       0.4909       0.4900      18.9076    4650.2432    5937.4541       0.7652       0.7871       0.1177      66.5642     220.9664       2.0445       0.0000
   11368.5       0.6332       1.5350    7186.4126    3496.1824       0.4850       0.4865      21.4648    4545.2334    5367.9443       0.8553       0.8529       0.1593      72.0596     220.9535       1.9826       0.0000
   11368.0       0.6344       1.4298    7112.0054    3417.6199       0.4834       0.4805      23.4362    4522.3169    4882.6924       0.9381       0.9303       0.2140      68.9678     220.9389       1.8084       0.0000
   11367.5       0.6281       1.3527    7081.2251    3382.8999       0.4731       0.4777      25.2902    4431.9307    4551.8350       0.9975       0.9747       0.2439      74.5159     220.9257       1.7993       0.0000
   11367.0       0.6070       1.2914    7105.2119    3358.6160       0.4766       0.4727      24.7063    4352.2632    4415.3818       0.9884       0.9856       0.2559      75.9891     220.9107       1.8181       0.0000
   11366.5       0.5988       1.3150    7133.4102    3367.8191       0.4684       0.4721      24.0778    4270.0669    4434.5811       0.9710       0.9634       0.2401      71.3261     220.8967       1.8733       0.0000
   11366.0       0.5945       1.3519    7174.6958    3354.5989       0.4714       0.4676      23.9681    4235.4082    4433.7944       0.9308       0.9556       0.2342      68.4146     220.8851       1.9976       0.0000
   11365.5       0.5842       1.3277    7161.0015    3342.9482       0.4629       0.4668      25.9097    4179.8325    4353.4888       0.9650       0.9610       0.2315      74.0944     220.8711       2.1111       0.0000
   11365.0       0.5760       1.2739    7109.4756    3301.5562       0.4662       0.4644      26.7570    4118.4131    4200.0767       0.9871       0.9808       0.2448      75.2040     220.8545       2.4721       0.0000
   11364.5       0.5816       1.2550    7053.5127    3253.1204       0.4641       0.4612      27.2666    4109.6436    4083.8596       0.9904       1.0067       0.2648      80.7584     220.8410       2.7231       0.0000
   11364.0       0.5920       1.2578    7055.0464    3208.5127       0.4533       0.4548      26.6394    4134.0112    4020.4890       1.0427       1.0286       0.2855      85.7448     220.8320       2.5814       0.0000
   11363.5       0.5876       1.2682    7080.1313    3204.0239       0.4471       0.4525      27.2363    4164.5088    3989.1606       1.0527       1.0440       0.2963      88.3392     220.8214       2.5895       0.0000
   11363.0       0.5801       1.2475    7133.8467    3251.4355       0.4573       0.4558      26.6423    4145.9307    4018.1091       1.0365       1.0320       0.2884      81.8690     220.8086       2.3259       0.0000
   11362.5       0.5710       1.2305    7172.3394    3320.3518       0.4629       0.4629      25.6885    4138.3647    4115.2017       1.0068       1.0063       0.2701      74.8415     220.7958       2.2661       0.0000
   11362.0       0.5748       1.2729    7245.6602    3382.9458       0.4685       0.4669      23.5830    4183.4434    4345.7705       0.9755       0.9650       0.2435      68.9636     220.7835       2.0487       0.0000
   11361.5       0.5859       1.3350    7255.5220    3413.9060       0.4692       0.4705      22.5301    4267.6255    4670.6553       0.9126       0.9169       0.2081      65.8118     220.7717       1.9300       0.0000
   11361.0       0.6140       1.4632    7247.9790    3421.9375       0.4739       0.4721      21.8017    4394.4341    4995.6455       0.8626       0.8806       0.1814      64.5249     220.7602       2.0946       0.0000
   11360.5       0.6291       1.5678    7193.6807    3414.4873       0.4733       0.4747      21.8904    4488.9082    5231.2769       0.8667       0.8583       0.1633      68.2742     220.7500       2.1065       0.0000
