~VERSION INFORMATION
VERS.           2.0   :CWLS Log ASCII Standard - VERSION 2.0
WRAP.           NO    :One Line per depth step
PROD.  Schlumberger   :LAS Producer
PROG.  DLIS to ASCII 2.2                               :LAS Program name and version
CREA.        2015/01/05 09:49                          :LAS Creation date {YYYY/MM/DD hh:mm}
SOURCE.     JF 20-5_Main Pass.DLIS                     :DLIS File Name
FILE-ID.     SCMT_RST_PSP_012LUP                       :File Identification Number
#--------------------------------------------------
~WELL INFORMATION
#MNEM.UNIT      DATA             DESCRIPTION
#---- ------ --------------   -----------------------------
STRT .F        12063.0       :START DEPTH     
STOP .F         6915.0       :STOP DEPTH     
STEP .F           -0.5       :STEP     
NULL .          -999.25      :NULL VALUE
COMP .        Encana Oil & Gas (USA) Inc.              :COMPANY
WELL .        Jonah Federal 20-5                       :WELL
FLD  .        Jonah                                    :FIELD
LOC  .        SHL: Lot-6, 690' FNL & 2203' FEL         :LOCATION
CNTY .        Sublette                                 :COUNTY
STAT .        Wyoming                                  :STATE
CTRY .                                                 :COUNTRY
API  .        49035281690000                           :API NUMBER
UWI  .        49035281690000                           :UNIQUE WELL ID
DATE .        02-Jan-2015                              :LOG DATE {DD-MMM-YYYY}
SRVC .        Schlumberger                             :SERVICE COMPANY
LATI .DEG                                              :LATITUDE
LONG .DEG                                              :LONGITUDE
GDAT .                                                 :GeoDetic Datum
#-----------------------------------------------------------------------------
~PARAMETER INFORMATION
#MNEM.UNIT    VALUE                      DESCRIPTION
#---- -----   --------------------       ------------------------
RUN  .          1                        :RUN NUMBER
PDAT .        GROUND LEVEL               :Permanent Datum
EPD  .F         7141.000000              :Elevation of Permanent Datum above Mean Sea Level
EPD  .F         7141.000000              :Elevation of tool zero above Mean Sea Level
LMF  .          KELLY BUSHING            :Logging Measured From (Name of Logging Elevation Reference)
APD  .F          13.500000               :Elevation of Depth Reference (LMF) above Permanent Datum
#-----------------------------------------------------------------------------
~CURVE INFORMATION
#MNEM.UNIT   API CODE                                  DESCRIPTION
#---- -----  --------                                  -----------------------
DEPT .F                                                :DEPTH (BOREHOLE) {F10.1}
CIRN_FIL.                                              :Capture to Inelastic Ratio Near Filtered {F13.4}
CIRF_FIL.                                              :Capture to Inelastic Ratio Far Filtered {F13.4}
INND_FIL.HZ                                            :Gross Inelastic Count Rate Near Detector Filtered {F13.4}
INFD_FIL.HZ                                            :Gross Inelastic Count Rate Far Detector Filtered {F13.4}
IRAT .                                                 :Inelastic Ratio {F13.4}
IRAT_FIL.                                              :Inelastic Ratio Filtered {F13.4}
SIGM .CU                                               :Formation Sigma (Neutron Capture Cross Section) {F13.4}
TSCN_FIL.HZ                                            :Total Selected Count Rate Near Detector Filtered {F13.4}
TSCF_FIL.HZ                                            :Total Selected Count Rate Far Detector Filtered {F13.4}
TRAT .                                                 :Near/Far Capture Ratio {F13.4}
TRAT_FIL.                                              :Capture Ratio Filtered {F13.4}
TPHI .CFCF                                             :Thermal Decay Porosity {F13.4}
GR   .GAPI                                             :Gamma Ray {F13.4}
WTEP .DEGF                                             :Well Temperature {F13.4}
CBL  .MV                                               :CBL Amplitude {F13.4}
CCLD .V                                                :CCL Discriminated Amplitude {F13.4}
#-----------------------------------------------------------------------------
# 
#     DEPT      CIRN_FIL     CIRF_FIL     INND_FIL     INFD_FIL       IRAT       IRAT_FIL       SIGM       TSCN_FIL     TSCF_FIL       TRAT       TRAT_FIL       TPHI         GR           WTEP         CBL          CCLD
#
~A  
# ...
    7271.5       0.9072       2.3692    7235.7324    3320.4849       0.4600       0.4589      14.9749    6492.3423    7810.2168       0.8337       0.8315       0.1657      58.4283     164.1370      14.6215       0.0000
    7271.0       0.8922       2.3656    7217.3203    3361.3369       0.4636       0.4657      15.1862    6464.2495    7890.9956       0.8128       0.8192       0.1554      63.6930     164.1303      10.8756       0.0000
    7270.5       0.8901       2.3172    7232.8257    3385.0593       0.4736       0.4680      14.6260    6418.4932    7881.4629       0.8112       0.8144       0.1534      62.0182     164.1268      24.2909       0.0000
    7270.0       0.8828       2.3095    7258.8467    3384.5229       0.4669       0.4663      14.5908    6385.2134    7840.6597       0.8192       0.8144       0.1533      59.2188     164.1197      24.1266       0.0000
    7269.5       0.8684       2.3353    7314.8296    3371.8972       0.4584       0.4610      14.2419    6318.8667    7804.6089       0.8128       0.8096       0.1507      56.2180     164.1107      24.0383       0.0000
    7269.0       0.8429       2.3097    7342.3745    3393.4243       0.4577       0.4622      14.6706    6242.3633    7810.1665       0.7969       0.7993       0.1413      56.2807     164.1035      23.0454       0.0000
    7268.5       0.8424       2.2817    7358.6162    3453.8276       0.4704       0.4694      14.7804    6213.1445    7803.1226       0.7881       0.7963       0.1385      49.0731     164.0966      21.9687       0.0000
    7268.0       0.8525       2.2021    7375.1885    3511.3997       0.4800       0.4761      15.0354    6260.9917    7820.0928       0.8037       0.8006       0.1408      43.3799     164.0892      21.7225       0.0000
    7267.5       0.8554       2.2095    7420.9595    3552.2056       0.4779       0.4787      14.4281    6291.8560    7838.3276       0.8100       0.8027       0.1440      48.1221     164.0820      19.3064       0.0000
    7267.0       0.8423       2.2067    7463.7451    3551.2395       0.4781       0.4758      14.4704    6307.2051    7888.4814       0.7944       0.7996       0.1412      55.9313     164.0758      20.0809       0.0000
    7266.5       0.8463       2.2423    7486.1538    3555.6570       0.4714       0.4750      14.2033    6312.2896    7979.2046       0.7943       0.7911       0.1355      57.1407     164.0677      19.3449       0.0000
    7266.0       0.8559       2.2768    7495.8779    3563.9028       0.4754       0.4754      14.1789    6391.4609    8146.1035       0.7847       0.7848       0.1306      63.6085     164.0611      18.3573       0.0000
    7265.5       0.8667       2.3364    7485.5635    3617.4756       0.4796       0.4833      13.8120    6427.9355    8480.6602       0.7753       0.7591       0.1132      72.8344     164.0557      20.9828       0.0000
    7265.0       0.8596       2.4223    7468.3198    3650.9143       0.4949       0.4889      13.8954    6471.6079    8871.8105       0.7173       0.7308       0.0926      74.3990     164.0488      22.0320       0.0000
    7264.5       0.8755       2.5212    7440.3975    3664.1458       0.4922       0.4925      14.0078    6513.3071    9194.6484       0.6997       0.7085       0.0764      71.4471     164.0402      22.3888       0.0000
    7264.0       0.8983       2.5605    7437.7402    3632.6641       0.4903       0.4884      13.8954    6666.4424    9334.2510       0.7085       0.7142       0.0808      71.3711     164.0311      20.9879       0.0000
    7263.5       0.9224       2.5971    7433.5967    3597.2944       0.4827       0.4839      13.7209    6847.5176    9298.4229       0.7343       0.7366       0.0973      69.1128     164.0246      23.2777       0.0000
    7263.0       0.9429       2.5832    7400.1221    3542.0530       0.4787       0.4786      13.7040    6986.4785    9144.1289       0.7670       0.7645       0.1172      65.8049     164.0173      20.6049       0.0000
    7262.5       0.9594       2.5745    7336.7422    3514.5308       0.4744       0.4790      13.9460    7065.2524    8883.4482       0.7922       0.7960       0.1393      65.1842     164.0101      19.2398       0.0000
    7262.0       0.9789       2.4377    7296.0601    3491.0144       0.4840       0.4785      14.3120    7019.6890    8640.8838       0.8289       0.8127       0.1503      66.2869     164.0054      16.8515       0.0000
    7261.5       0.9461       2.4206    7328.4883    3495.8113       0.4770       0.4771      14.7569    6939.5010    8479.3076       0.8169       0.8183       0.1529      70.8876     163.9973      18.7523       0.0000
    7261.0       0.9225       2.4147    7411.1699    3485.0056       0.4702       0.4703      14.8348    6775.7881    8613.5166       0.8092       0.7877       0.1299      73.1459     163.9902      22.5620       0.0000
    7260.5       0.8793       2.5606    7470.1860    3511.6526       0.4637       0.4701      14.4642    6723.0215    8881.8770       0.7370       0.7583       0.1097      74.2556     163.9863      22.7678       0.0000
    7260.0       0.9029       2.5815    7455.6553    3547.4658       0.4764       0.4759      13.6887    6738.0303    9282.9609       0.7288       0.7261       0.0891      74.2830     163.9839      23.6011       0.0000
    7259.5       0.9292       2.6731    7431.3325    3565.9856       0.4875       0.4799      13.7189    6926.9053    9515.5049       0.7127       0.7279       0.0902      74.6529     163.9791      26.3611       0.0000
    7259.0       0.9650       2.7398    7412.9263    3573.9275       0.4757       0.4821      13.6115    7108.0518    9678.8896       0.7424       0.7343       0.0949      74.9761     163.9720      26.4824       0.0000
    7258.5       0.9961       2.7484    7459.8569    3569.4834       0.4832       0.4785      13.6643    7283.0996    9714.2646       0.7479       0.7497       0.1055      75.6321     163.9672      25.5308       0.0000
    7258.0       0.9961       2.7470    7453.1152    3594.6445       0.4766       0.4823      13.3323    7352.1030    9730.7090       0.7589       0.7556       0.1107      75.6321     163.9620      25.6980       0.0000
    7257.5       1.0052       2.7199    7453.0386    3562.7175       0.4872       0.4780      13.0186    7352.2793    9732.2607       0.7599       0.7555       0.1117      77.7047     163.9549      21.8538       0.0000
    7257.0       0.9826       2.7812    7402.9106    3543.6384       0.4703       0.4787      13.1774    7311.5596    9733.1748       0.7476       0.7512       0.1079      77.1774     163.9463      21.4426       0.0000
    7256.5       0.9867       2.7751    7396.6670    3526.4272       0.4786       0.4768      12.8962    7257.7197    9727.9590       0.7461       0.7461       0.1051      72.9654     163.9400      19.9597       0.0000
    7256.0       0.9782       2.7157    7376.0093    3543.0803       0.4815       0.4804      13.0154    7216.9912    9676.7754       0.7445       0.7458       0.1044      69.1029     163.9364      18.7991       0.0000
    7255.5       0.9751       2.6948    7354.8149    3556.7542       0.4810       0.4836      12.6505    7209.6875    9639.2764       0.7468       0.7480       0.1071      70.3591     163.9331      17.7987       0.0000
    7255.0       0.9838       2.6832    7323.0596    3572.0596       0.4883       0.4878      12.4473    7211.1802    9634.8213       0.7526       0.7485       0.1081      64.0713     163.9307      18.4984       0.0000
    7254.5       0.9787       2.6979    7290.2856    3600.3130       0.4940       0.4939      12.2857    7255.1094    9677.8574       0.7460       0.7497       0.1094      63.1017     163.9322      21.6452       0.0000
    7254.0       0.9945       2.7032    7253.6768    3599.8733       0.4992       0.4963      12.5785    7257.7280    9687.3379       0.7504       0.7492       0.1080      64.6090     163.9346      23.1871       0.0000
    7253.5       0.9983       2.7297    7233.9907    3546.5947       0.4956       0.4903      12.8944    7252.6094    9630.6172       0.7512       0.7531       0.1098      62.3002     163.9337      21.9217       0.0000
