~VERSION INFORMATION
VERS.           2.0   :CWLS Log ASCII Standard - VERSION 2.0
WRAP.           NO    :One Line per depth step
PROD.  Schlumberger   :LAS Producer
PROG.  DLIS to ASCII 2.2                               :LAS Program name and version
CREA.        2015/01/05 09:49                          :LAS Creation date {YYYY/MM/DD hh:mm}
SOURCE.     JF 20-5_Main Pass.DLIS                     :DLIS File Name
FILE-ID.     SCMT_RST_PSP_012LUP                       :File Identification Number
#--------------------------------------------------
~WELL INFORMATION
#MNEM.UNIT      DATA             DESCRIPTION
#---- ------ --------------   -----------------------------
STRT .F        12063.0       :START DEPTH     
STOP .F         6915.0       :STOP DEPTH     
STEP .F           -0.5       :STEP     
NULL .          -999.25      :NULL VALUE
COMP .        Encana Oil & Gas (USA) Inc.              :COMPANY
WELL .        Jonah Federal 20-5                       :WELL
FLD  .        Jonah                                    :FIELD
LOC  .        SHL: Lot-6, 690' FNL & 2203' FEL         :LOCATION
CNTY .        Sublette                                 :COUNTY
STAT .        Wyoming                                  :STATE
CTRY .                                                 :COUNTRY
API  .        49035281690000                           :API NUMBER
UWI  .        49035281690000                           :UNIQUE WELL ID
DATE .        02-Jan-2015                              :LOG DATE {DD-MMM-YYYY}
SRVC .        Schlumberger                             :SERVICE COMPANY
LATI .DEG                                              :LATITUDE
LONG .DEG                                              :LONGITUDE
GDAT .                                                 :GeoDetic Datum
#-----------------------------------------------------------------------------
~PARAMETER INFORMATION
#MNEM.UNIT    VALUE                      DESCRIPTION
#---- -----   --------------------       ------------------------
RUN  .          1                        :RUN NUMBER
PDAT .        GROUND LEVEL               :Permanent Datum
EPD  .F         7141.000000              :Elevation of Permanent Datum above Mean Sea Level
EPD  .F         7141.000000              :Elevation of tool zero above Mean Sea Level
LMF  .          KELLY BUSHING            :Logging Measured From (Name of Logging Elevation Reference)
APD  .F          13.500000               :Elevation of Depth Reference (LMF) above Permanent Datum
#-----------------------------------------------------------------------------
~CURVE INFORMATION
#MNEM.UNIT   API CODE                                  DESCRIPTION
#---- -----  --------                                  -----------------------
DEPT .F                                                :DEPTH (BOREHOLE) {F10.1}
CIRN_FIL.                                              :Capture to Inelastic Ratio Near Filtered {F13.4}
CIRF_FIL.                                              :Capture to Inelastic Ratio Far Filtered {F13.4}
INND_FIL.HZ                                            :Gross Inelastic Count Rate Near Detector Filtered {F13.4}
INFD_FIL.HZ                                            :Gross Inelastic Count Rate Far Detector Filtered {F13.4}
IRAT .                                                 :Inelastic Ratio {F13.4}
IRAT_FIL.                                              :Inelastic Ratio Filtered {F13.4}
SIGM .CU                                               :Formation Sigma (Neutron Capture Cross Section) {F13.4}
TSCN_FIL.HZ                                            :Total Selected Count Rate Near Detector Filtered {F13.4}
TSCF_FIL.HZ                                            :Total Selected Count Rate Far Detector Filtered {F13.4}
TRAT .                                                 :Near/Far Capture Ratio {F13.4}
TRAT_FIL.                                              :Capture Ratio Filtered {F13.4}
TPHI .CFCF                                             :Thermal Decay Porosity {F13.4}
GR   .GAPI                                             :Gamma Ray {F13.4}
WTEP .DEGF                                             :Well Temperature {F13.4}
CBL  .MV                                               :CBL Amplitude {F13.4}
CCLD .V                                                :CCL Discriminated Amplitude {F13.4}
#-----------------------------------------------------------------------------
# 
#     DEPT      CIRN_FIL     CIRF_FIL     INND_FIL     INFD_FIL       IRAT       IRAT_FIL       SIGM       TSCN_FIL     TSCF_FIL       TRAT       TRAT_FIL       TPHI         GR           WTEP         CBL          CCLD
#
~A  
# ...
    8992.0       0.6249       1.7685    7290.8096    3563.0042       0.4830       0.4887      17.6256    4608.7808    6176.4551       0.7487       0.7469       0.0927      53.1491     187.6131      25.8777       0.0000
    8991.5       0.6402       1.6884    7304.3267    3526.1609       0.4857       0.4828      18.3322    4595.9873    5954.3467       0.7756       0.7724       0.1087      49.4504     187.6072      35.1243       0.0000
    8991.0       0.6276       1.5751    7273.3760    3477.9805       0.4795       0.4782      19.2259    4514.7104    5587.5430       0.7928       0.8107       0.1344      49.0394     187.6010      10.8387       0.0000
    8990.5       0.6110       1.4718    7290.8311    3423.5769       0.4693       0.4696      20.2994    4426.8833    5156.6138       0.8636       0.8633       0.1719      50.1449     187.5952      11.4634      -0.1849
    8990.0       0.5944       1.3930    7271.8530    3340.6736       0.4600       0.4594      21.3174    4391.7388    4875.4565       0.9336       0.9017       0.1982      55.0954     187.5890      11.3302      -0.1765
    8989.5       0.6154       1.4658    7287.4404    3307.3657       0.4490       0.4538      21.5910    4456.8613    4859.6445       0.9078       0.9174       0.2103      53.8083     187.5823       9.6295      -0.2082
    8989.0       0.6347       1.4857    7223.6436    3278.4607       0.4525       0.4539      20.8075    4579.8242    5015.9443       0.9109       0.9129       0.2098      57.8769     187.5762       6.2160       0.0000
    8988.5       0.6601       1.5598    7218.9766    3342.3567       0.4601       0.4630      20.1069    4616.4292    5099.7788       0.9202       0.9053       0.2064      58.9865     187.5715      10.9653       0.0000
    8988.0       0.6397       1.5110    7203.8228    3415.7290       0.4763       0.4741      19.5437    4579.1172    5126.2417       0.8848       0.8932       0.1987      60.6041     187.5660      13.5118       0.0000
    8987.5       0.6181       1.4906    7240.1470    3499.1643       0.4858       0.4833      20.2790    4444.4136    5071.8760       0.8746       0.8762       0.1821      60.2342     187.5611      13.0392       0.0000
    8987.0       0.6051       1.4197    7180.5181    3520.8584       0.4878       0.4904      21.1598    4313.3564    4968.4146       0.8692       0.8680       0.1722      67.9983     187.5570      12.0660       0.0000
    8986.5       0.5981       1.3568    7127.8647    3513.2419       0.4976       0.4929      21.4683    4218.4331    4826.7471       0.8603       0.8743       0.1760      70.9573     187.5508      12.3364       0.0000
    8986.0       0.5966       1.3256    7059.6821    3478.1213       0.4934       0.4927      22.3438    4152.4976    4736.0591       0.8933       0.8770       0.1749      71.6970     187.5482      11.5938       0.0000
    8985.5       0.5837       1.3644    7025.0303    3448.9019       0.4870       0.4909      22.6979    4143.4731    4716.4932       0.8774       0.8786       0.1750      69.7560     187.5458      12.5925       0.0000
    8985.0       0.5953       1.3978    6980.7651    3405.0122       0.4924       0.4878      23.3992    4144.9849    4783.2441       0.8652       0.8667       0.1629      67.5368     187.5409      13.1347       0.0000
    8984.5       0.6010       1.4822    7009.4673    3393.6082       0.4839       0.4842      22.8801    4169.6206    4791.8306       0.8574       0.8703       0.1680      65.5093     187.5376      14.1905       0.0000
    8984.0       0.5958       1.4278    7091.7881    3384.5647       0.4763       0.4773      23.1018    4207.3618    4752.0122       0.8883       0.8858       0.1799      67.7676     187.5350      13.5740       0.0000
    8983.5       0.5882       1.4034    7200.2373    3400.2368       0.4718       0.4723      23.1139    4252.6177    4687.7617       0.9116       0.9073       0.1972      68.1374     187.5319      13.5923       0.0000
    8983.0       0.5905       1.3557    7234.9063    3413.7598       0.4687       0.4719      22.9860    4262.5117    4690.3628       0.9219       0.9089       0.1987      74.3655     187.5304      13.5473       0.0000
    8982.5       0.5858       1.3838    7222.2637    3407.5659       0.4751       0.4718      21.0114    4248.6963    4761.6382       0.8931       0.8927       0.1927      77.1933     187.5276      12.7331       0.0000
    8982.0       0.5876       1.4497    7145.8652    3408.1824       0.4717       0.4770      21.2879    4281.1187    4875.8350       0.8632       0.8782       0.1799      78.2858     187.5225      12.3858       0.0000
    8981.5       0.6116       1.4610    7073.7930    3359.1504       0.4842       0.4749      21.0116    4369.5083    4910.8945       0.8783       0.8899       0.1908      76.3974     187.5161      11.0119       0.0000
    8981.0       0.6380       1.4778    6981.9976    3313.9016       0.4687       0.4746      22.4583    4493.6699    4861.1245       0.9284       0.9253       0.2147      76.2067     187.5091      10.5091       0.0000
    8980.5       0.6624       1.4391    6904.3843    3255.2434       0.4709       0.4715      22.7672    4509.2949    4759.2036       0.9692       0.9476       0.2320      74.0050     187.5049      10.3960       0.0000
    8980.0       0.6523       1.4363    6852.6343    3259.0923       0.4749       0.4756      24.4673    4488.8198    4651.0220       0.9454       0.9653       0.2406      71.4038     187.5000       9.9974       0.0000
    8979.5       0.6488       1.3781    6857.7617    3274.1343       0.4811       0.4774      25.1425    4428.9595    4538.2324       0.9814       0.9766       0.2476      72.5306     187.4946      10.3284       0.0000
    8979.0       0.6368       1.3323    6924.3550    3286.3604       0.4763       0.4747      25.6006    4419.4614    4406.7524       1.0030       1.0033       0.2685      71.0511     187.4906      11.3932       0.0000
    8978.5       0.6288       1.3086    6968.5493    3278.0032       0.4666       0.4704      25.1761    4406.2207    4342.7808       1.0254       1.0147       0.2795      72.7213     187.4852      10.4772       0.0000
    8978.0       0.6300       1.3200    6981.0273    3275.3508       0.4683       0.4692      26.0862    4395.2007    4375.0762       1.0157       1.0050       0.2673      69.3419     187.4773      12.0735       0.0000
    8977.5       0.6287       1.3658    6911.8823    3307.6799       0.4726       0.4787      25.6826    4398.4707    4455.8433       0.9740       0.9875       0.2535      74.2760     187.4720      11.5560       0.0000
    8977.0       0.6478       1.3504    6867.1836    3343.9797       0.4951       0.4870      25.2262    4384.5259    4504.6416       0.9729       0.9733       0.2430      73.7763     187.4665      12.5839       0.0000
    8976.5       0.6326       1.3333    6841.2627    3388.9807       0.4934       0.4954      24.7518    4390.5562    4480.6519       0.9731       0.9800       0.2496      68.9576     187.4615      11.3684       0.0000
    8976.0       0.6342       1.2912    6901.2695    3403.8323       0.4976       0.4932      24.8309    4332.7158    4435.0713       0.9939       0.9769       0.2457      67.4781     187.4564      13.1337       0.0000
    8975.5       0.6087       1.2934    6959.0879    3434.8630       0.4887       0.4936      23.9091    4278.9780    4508.9336       0.9637       0.9502       0.2263      64.8901     187.4482      14.4053       0.0000
    8975.0       0.5985       1.3547    7016.6582    3474.6040       0.4945       0.4952      21.4995    4203.0459    4723.0161       0.8930       0.8931       0.1887      59.3595     187.4403      13.2427       0.0000
    8974.5       0.5880       1.4268    7081.7534    3536.8059       0.5023       0.4994      19.1165    4224.5752    5199.1104       0.8227       0.8182       0.1387      50.6124     187.4360      11.7725       0.0000
    8974.0       0.6002       1.5898    7173.3706    3611.7454       0.5014       0.5035      17.3846    4321.9497    5753.5464       0.7390       0.7557       0.0980      49.0862     187.4313       8.2155       0.0000
