~VERSION INFORMATION
VERS.           2.0   :CWLS Log ASCII Standard - VERSION 2.0
WRAP.           NO    :One Line per depth step
PROD.  Schlumberger   :LAS Producer
PROG.  DLIS to ASCII 2.2                               :LAS Program name and version
CREA.        2015/01/05 09:49                          :LAS Creation date {YYYY/MM/DD hh:mm}
SOURCE.     JF 20-5_Main Pass.DLIS                     :DLIS File Name
FILE-ID.     SCMT_RST_PSP_012LUP                       :File Identification Number
#--------------------------------------------------
~WELL INFORMATION
#MNEM.UNIT      DATA             DESCRIPTION
#---- ------ --------------   -----------------------------
STRT .F        12063.0       :START DEPTH     
STOP .F         6915.0       :STOP DEPTH     
STEP .F           -0.5       :STEP     
NULL .          -999.25      :NULL VALUE
COMP .        Encana Oil & Gas (USA) Inc.              :COMPANY
WELL .        Jonah Federal 20-5                       :WELL
FLD  .        Jonah                                    :FIELD
LOC  .        SHL: Lot-6, 690' FNL & 2203' FEL         :LOCATION
CNTY .        Sublette                                 :COUNTY
STAT .        Wyoming                                  :STATE
CTRY .                                                 :COUNTRY
API  .        49035281690000                           :API NUMBER
UWI  .        49035281690000                           :UNIQUE WELL ID
DATE .        02-Jan-2015                              :LOG DATE {DD-MMM-YYYY}
SRVC .        Schlumberger                             :SERVICE COMPANY
LATI .DEG                                              :LATITUDE
LONG .DEG                                              :LONGITUDE
GDAT .                                                 :GeoDetic Datum
#-----------------------------------------------------------------------------
~PARAMETER INFORMATION
#MNEM.UNIT    VALUE                      DESCRIPTION
#---- -----   --------------------       ------------------------
RUN  .          1                        :RUN NUMBER
PDAT .        GROUND LEVEL               :Permanent Datum
EPD  .F         7141.000000              :Elevation of Permanent Datum above Mean Sea Level
EPD  .F         7141.000000              :Elevation of tool zero above Mean Sea Level
LMF  .          KELLY BUSHING            :Logging Measured From (Name of Logging Elevation Reference)
APD  .F          13.500000               :Elevation of Depth Reference (LMF) above Permanent Datum
#-----------------------------------------------------------------------------
~CURVE INFORMATION
#MNEM.UNIT   API CODE                                  DESCRIPTION
#---- -----  --------                                  -----------------------
DEPT .F                                                :DEPTH (BOREHOLE) {F10.1}
CIRN_FIL.                                              :Capture to Inelastic Ratio Near Filtered {F13.4}
CIRF_FIL.                                              :Capture to Inelastic Ratio Far Filtered {F13.4}
INND_FIL.HZ                                            :Gross Inelastic Count Rate Near Detector Filtered {F13.4}
INFD_FIL.HZ                                            :Gross Inelastic Count Rate Far Detector Filtered {F13.4}
IRAT .                                                 :Inelastic Ratio {F13.4}
IRAT_FIL.                                              :Inelastic Ratio Filtered {F13.4}
SIGM .CU                                               :Formation Sigma (Neutron Capture Cross Section) {F13.4}
TSCN_FIL.HZ                                            :Total Selected Count Rate Near Detector Filtered {F13.4}
TSCF_FIL.HZ                                            :Total Selected Count Rate Far Detector Filtered {F13.4}
TRAT .                                                 :Near/Far Capture Ratio {F13.4}
TRAT_FIL.                                              :Capture Ratio Filtered {F13.4}
TPHI .CFCF                                             :Thermal Decay Porosity {F13.4}
GR   .GAPI                                             :Gamma Ray {F13.4}
WTEP .DEGF                                             :Well Temperature {F13.4}
CBL  .MV                                               :CBL Amplitude {F13.4}
CCLD .V                                                :CCL Discriminated Amplitude {F13.4}
#-----------------------------------------------------------------------------
# 
#     DEPT      CIRN_FIL     CIRF_FIL     INND_FIL     INFD_FIL       IRAT       IRAT_FIL       SIGM       TSCN_FIL     TSCF_FIL       TRAT       TRAT_FIL       TPHI         GR           WTEP         CBL          CCLD
#
~A  
# ...
    8307.5       0.6384       1.3250    6808.0894    3229.7351       0.4766       0.4745      25.4835    4359.7339    4256.6694       1.0216       1.0243       0.2918      80.3229     178.2412       2.5676       0.0000
    8307.0       0.6303       1.2815    6874.8872    3215.6716       0.4662       0.4678      26.0304    4351.8145    4207.5137       1.0405       1.0344       0.2981      83.2822     178.2356       2.2960       0.0000
    8306.5       0.6237       1.2808    6902.0903    3227.6765       0.4606       0.4676      26.9293    4345.4897    4158.8203       1.0411       1.0449       0.3033      86.9610     178.2295       2.0953       0.0000
    8306.0       0.6346       1.2564    6875.4512    3250.7566       0.4762       0.4728      27.3230    4341.2056    4156.3535       1.0532       1.0445       0.3012      88.5785     178.2213       2.0718       0.0000
    8305.5       0.6481       1.2907    6885.9634    3302.5435       0.4818       0.4796      26.4680    4365.3701    4167.1821       1.0393       1.0476       0.3069      89.9282     178.2145       2.0384       0.0000
    8305.0       0.6448       1.2640    6934.1289    3298.9402       0.4809       0.4758      25.9117    4325.9526    4176.8442       1.0503       1.0357       0.2983      87.0161     178.2104       2.3269       0.0000
    8304.5       0.6100       1.2764    7003.9648    3304.6243       0.4648       0.4719      25.6476    4280.7617    4159.3257       1.0174       1.0291       0.2934      87.2435     178.2065       2.5699       0.0000
    8304.0       0.5955       1.2523    7035.6665    3277.7024       0.4699       0.4659      26.5987    4193.5234    4139.6895       1.0197       1.0130       0.2758      84.7259     178.1975       2.7904       0.0000
    8303.5       0.5870       1.2647    6986.8086    3268.1924       0.4629       0.4678      27.2775    4221.2241    4140.3071       1.0018       1.0195       0.2788      83.1236     178.1792       4.2941       0.0000
    8303.0       0.6172       1.3047    6940.4678    3250.7393       0.4706       0.4684      27.6010    4243.5439    4147.3184       1.0369       1.0231       0.2811      83.2355     178.1561       5.2445       0.0000
    8302.5       0.6110       1.3146    6887.1924    3272.5659       0.4718       0.4752      27.1391    4306.6875    4168.0352       1.0307       1.0333       0.2917      80.2953     178.1328       4.4890       0.0000
    8302.0       0.6243       1.2901    6927.8643    3305.3223       0.4832       0.4771      27.0893    4309.9976    4156.0132       1.0322       1.0371       0.2952      81.3141     178.1126       3.8472       0.0000
    8301.5       0.6173       1.2376    6960.8301    3319.6260       0.4764       0.4769      27.4156    4313.6489    4146.0493       1.0484       1.0405       0.2967      80.8864     178.0927       3.7649       0.0000
    8301.0       0.6172       1.2610    7003.5234    3285.4734       0.4712       0.4691      28.8957    4305.1279    4162.1631       1.0408       1.0345       0.2853      79.1208     178.0766       3.0156       0.0000
    8300.5       0.6148       1.2973    6993.0771    3246.5815       0.4597       0.4643      28.2358    4319.6870    4252.1890       1.0144       1.0164       0.2719      76.0946     178.0695       2.3281       0.0000
    8300.0       0.6330       1.3563    6979.6670    3227.0081       0.4618       0.4624      27.6234    4381.6328    4358.4648       0.9939       1.0054       0.2644      79.3853     178.0646       2.6843       0.0000
    8299.5       0.6436       1.3787    6989.0020    3254.8213       0.4655       0.4657      25.3108    4506.1436    4474.9609       1.0080       1.0068       0.2744      78.4309     178.0589       3.5392       0.0000
    8299.0       0.6583       1.3836    7032.0308    3309.1128       0.4697       0.4705      24.7565    4567.5391    4553.7563       1.0185       1.0031       0.2733      74.7385     178.0497       4.1157       0.0000
    8298.5       0.6329       1.3699    7098.3472    3360.9663       0.4764       0.4735      24.3048    4564.0386    4598.1953       0.9829       0.9926       0.2660      75.8418     178.0395       5.9528       0.0000
    8298.0       0.6125       1.3475    7163.2578    3401.9617       0.4743       0.4749      24.1806    4426.0723    4603.1416       0.9764       0.9615       0.2402      75.1872     178.0247       6.9294       0.0000
    8297.5       0.5880       1.3309    7241.9141    3436.8748       0.4741       0.4746      23.6804    4322.8481    4591.1777       0.9252       0.9416       0.2252      73.6469     178.0109       5.6729       0.0000
    8297.0       0.5797       1.3172    7301.7251    3481.7236       0.4753       0.4768      23.4717    4268.3853    4703.2607       0.9232       0.9083       0.1984      69.8003     177.9993       4.8414       0.0000
    8296.5       0.5909       1.3792    7311.6289    3515.8174       0.4810       0.4809      23.0818    4314.9297    4846.1357       0.8764       0.8912       0.1861      69.6106     177.9857       3.7859       0.0000
    8296.0       0.6117       1.4132    7246.4482    3510.8872       0.4863       0.4845      23.3217    4399.1133    5004.4629       0.8740       0.8790       0.1753      73.6855     177.9739       3.1811       0.0000
    8295.5       0.6297       1.4554    7160.2896    3459.5635       0.4863       0.4831      23.7571    4465.7236    5013.3491       0.8865       0.8909       0.1835      76.5918     177.9632       2.1120       0.0000
    8295.0       0.6378       1.4669    7107.2769    3385.7107       0.4769       0.4764      24.4232    4513.9189    4929.3647       0.9121       0.9164       0.2020      77.0607     177.9471       1.9080       0.0000
    8294.5       0.6392       1.4528    7066.8892    3311.8928       0.4659       0.4686      25.6766    4549.2734    4772.6421       0.9505       0.9543       0.2290      78.9501     177.9288       2.0559       0.0000
    8294.0       0.6589       1.4207    7052.0894    3273.4976       0.4631       0.4642      26.1621    4612.7930    4619.3984       1.0002       0.9996       0.2659      86.1673     177.9112       2.0727       0.0000
    8293.5       0.6686       1.3749    7040.6265    3258.0027       0.4635       0.4627      27.0286    4645.4141    4500.7075       1.0480       1.0325       0.2910      82.7395     177.8948       2.2828       0.0000
    8293.0       0.6598       1.3539    7061.0669    3275.8853       0.4616       0.4639      27.6096    4625.6392    4426.2139       1.0493       1.0450       0.2999      82.7921     177.8814       2.1189       0.0000
    8292.5       0.6427       1.3308    7063.7036    3315.6399       0.4667       0.4694      27.8857    4536.4341    4347.1343       1.0377       1.0435       0.2974      82.6467     177.8694       2.2034       0.0000
    8292.0       0.6293       1.2539    7067.1372    3350.4258       0.4799       0.4741      27.7675    4459.5303    4269.4219       1.0436       1.0446       0.2987      81.8669     177.8561       2.4637       0.0000
    8291.5       0.6222       1.2362    7038.0361    3374.4407       0.4757       0.4795      27.4565    4357.4180    4182.5210       1.0526       1.0417       0.2970      77.2378     177.8432       2.2642       0.0000
    8291.0       0.6080       1.2200    7027.1509    3357.7998       0.4828       0.4778      27.8121    4286.6787    4112.9609       1.0290       1.0422       0.2959      76.9669     177.8312       2.2173       0.0000
    8290.5       0.6043       1.2224    6969.1172    3350.9949       0.4750       0.4809      27.5198    4202.1909    4073.7131       1.0449       1.0316       0.2879      73.3557     177.8242       1.8441       0.0000
    8290.0       0.6029       1.2234    6967.9854    3332.0942       0.4847       0.4782      26.9154    4200.1094    4066.3643       1.0208       1.0329       0.2912      71.0911     177.8190       1.8960       0.0000
    8289.5       0.6049       1.2455    6991.3442    3327.2275       0.4749       0.4760      26.0206    4192.7534    4115.4834       1.0330       1.0189       0.2823      72.2008     177.8017       2.5914       0.0000
