~VERSION INFORMATION
VERS.           2.0   :CWLS Log ASCII Standard - VERSION 2.0
WRAP.           NO    :One Line per depth step
PROD.  Schlumberger   :LAS Producer
PROG.  DLIS to ASCII 2.2                               :LAS Program name and version
CREA.        2015/01/05 09:49                          :LAS Creation date {YYYY/MM/DD hh:mm}
SOURCE.     JF 20-5_Main Pass.DLIS                     :DLIS File Name
FILE-ID.     SCMT_RST_PSP_012LUP                       :File Identification Number
#--------------------------------------------------
~WELL INFORMATION
#MNEM.UNIT      DATA             DESCRIPTION
#---- ------ --------------   -----------------------------
STRT .F        12063.0       :START DEPTH     
STOP .F         6915.0       :STOP DEPTH     
STEP .F           -0.5       :STEP     
NULL .          -999.25      :NULL VALUE
COMP .        Encana Oil & Gas (USA) Inc.              :COMPANY
WELL .        Jonah Federal 20-5                       :WELL
FLD  .        Jonah                                    :FIELD
LOC  .        SHL: Lot-6, 690' FNL & 2203' FEL         :LOCATION
CNTY .        Sublette                                 :COUNTY
STAT .        Wyoming                                  :STATE
CTRY .                                                 :COUNTRY
API  .        49035281690000                           :API NUMBER
UWI  .        49035281690000                           :UNIQUE WELL ID
DATE .        02-Jan-2015                              :LOG DATE {DD-MMM-YYYY}
SRVC .        Schlumberger                             :SERVICE COMPANY
LATI .DEG                                              :LATITUDE
LONG .DEG                                              :LONGITUDE
GDAT .                                                 :GeoDetic Datum
#-----------------------------------------------------------------------------
~PARAMETER INFORMATION
#MNEM.UNIT    VALUE                      DESCRIPTION
#---- -----   --------------------       ------------------------
RUN  .          1                        :RUN NUMBER
PDAT .        GROUND LEVEL               :Permanent Datum
EPD  .F         7141.000000              :Elevation of Permanent Datum above Mean Sea Level
EPD  .F         7141.000000              :Elevation of tool zero above Mean Sea Level
LMF  .          KELLY BUSHING            :Logging Measured From (Name of Logging Elevation Reference)
APD  .F          13.500000               :Elevation of Depth Reference (LMF) above Permanent Datum
#-----------------------------------------------------------------------------
~CURVE INFORMATION
#MNEM.UNIT   API CODE                                  DESCRIPTION
#---- -----  --------                                  -----------------------
DEPT .F                                                :DEPTH (BOREHOLE) {F10.1}
CIRN_FIL.                                              :Capture to Inelastic Ratio Near Filtered {F13.4}
CIRF_FIL.                                              :Capture to Inelastic Ratio Far Filtered {F13.4}
INND_FIL.HZ                                            :Gross Inelastic Count Rate Near Detector Filtered {F13.4}
INFD_FIL.HZ                                            :Gross Inelastic Count Rate Far Detector Filtered {F13.4}
IRAT .                                                 :Inelastic Ratio {F13.4}
IRAT_FIL.                                              :Inelastic Ratio Filtered {F13.4}
SIGM .CU                                               :Formation Sigma (Neutron Capture Cross Section) {F13.4}
TSCN_FIL.HZ                                            :Total Selected Count Rate Near Detector Filtered {F13.4}
TSCF_FIL.HZ                                            :Total Selected Count Rate Far Detector Filtered {F13.4}
TRAT .                                                 :Near/Far Capture Ratio {F13.4}
TRAT_FIL.                                              :Capture Ratio Filtered {F13.4}
TPHI .CFCF                                             :Thermal Decay Porosity {F13.4}
GR   .GAPI                                             :Gamma Ray {F13.4}
WTEP .DEGF                                             :Well Temperature {F13.4}
CBL  .MV                                               :CBL Amplitude {F13.4}
CCLD .V                                                :CCL Discriminated Amplitude {F13.4}
#-----------------------------------------------------------------------------
# 
#     DEPT      CIRN_FIL     CIRF_FIL     INND_FIL     INFD_FIL       IRAT       IRAT_FIL       SIGM       TSCN_FIL     TSCF_FIL       TRAT       TRAT_FIL       TPHI         GR           WTEP         CBL          CCLD
#
~A  
# ...
    9325.0       0.5808       1.3146    7025.0796    3442.0310       0.4896       0.4900      23.0000    4100.3687    4493.0776       0.8933       0.9129       0.2049      82.1925     192.0589       2.7416       0.0000
    9324.5       0.5941       1.3094    6969.9150    3428.5891       0.4903       0.4919      24.1043    4071.9915    4561.8140       0.9070       0.8927       0.1842      85.0871     192.0499       2.9216       0.0000
    9324.0       0.5878       1.3286    6936.4966    3418.9802       0.4958       0.4929      24.3346    4067.6863    4541.1230       0.8777       0.8958       0.1859      85.1275     192.0425       2.9458       0.0000
    9323.5       0.5908       1.3241    6942.0215    3417.6006       0.4926       0.4923      25.1328    4040.2915    4572.7998       0.9028       0.8837       0.1730      81.7986     192.0350       2.5750       0.0000
    9323.0       0.5697       1.3467    6989.6147    3426.0930       0.4886       0.4902      24.2157    4061.3911    4615.1113       0.8706       0.8803       0.1736      77.7301     192.0273       2.4999       0.0000
    9322.5       0.5756       1.3674    7078.1279    3448.1299       0.4894       0.4872      23.2632    4087.4119    4746.7817       0.8675       0.8613       0.1620      76.7595     192.0174       2.4835       0.0000
    9322.0       0.5849       1.4286    7158.8281    3489.7100       0.4836       0.4875      21.1096    4157.5195    4919.3408       0.8459       0.8458       0.1578      71.2603     192.0065       2.6694       0.0000
    9321.5       0.5914       1.4439    7192.9272    3527.0635       0.4895       0.4904      21.0841    4206.9082    5060.9893       0.8239       0.8315       0.1467      71.4106     191.9992       3.1681       0.0000
    9321.0       0.5959       1.4367    7176.0981    3535.9980       0.4981       0.4928      21.7055    4218.6450    4995.0874       0.8246       0.8458       0.1561      69.2326     191.9912       3.5384       0.0000
    9320.5       0.5833       1.3632    7091.6157    3508.8569       0.4907       0.4948      23.8976    4176.8682    4786.4194       0.8890       0.8746       0.1710      69.2326     191.9837       3.5289       0.0000
    9320.0       0.5814       1.3007    7041.7207    3474.7151       0.4956       0.4935      24.5984    4070.3799    4549.7871       0.9103       0.8946       0.1842      70.6709     191.9769       3.4260       0.0000
    9319.5       0.5600       1.2666    7026.8931    3474.4502       0.4941       0.4945      25.0479    3970.1462    4439.1675       0.8847       0.8942       0.1819      72.1133     191.9674       4.0738       0.0000
    9319.0       0.5493       1.2526    7060.2036    3455.7366       0.4937       0.4895      25.0275    3904.9304    4413.3081       0.8877       0.8848       0.1742      73.5928     191.9577       3.7269       0.0000
    9318.5       0.5531       1.2897    7110.3999    3436.0068       0.4807       0.4833      25.0939    3933.5044    4400.5015       0.8821       0.8939       0.1814      73.9163     191.9480       3.3287       0.0000
    9318.0       0.5626       1.2786    7156.9619    3400.1292       0.4754       0.4751      25.8475    3972.1067    4390.4976       0.9120       0.9049       0.1876      70.9573     191.9391       3.2944       0.0000
    9317.5       0.5548       1.2497    7248.1294    3424.8333       0.4693       0.4725      25.7483    3982.3425    4339.6665       0.9205       0.9177       0.1980      69.8477     191.9315       3.3739       0.0000
    9317.0       0.5403       1.2237    7340.6724    3448.6965       0.4729       0.4698      24.6269    3957.1602    4351.9131       0.9206       0.9095       0.1949      70.6401     191.9238       3.2044       0.0000
    9316.5       0.5289       1.2597    7403.7070    3505.7163       0.4673       0.4735      23.7939    3948.9675    4463.3423       0.8873       0.8858       0.1784      68.6464     191.9136       2.6105       0.0000
    9316.0       0.5462       1.3074    7429.4351    3548.0972       0.4804       0.4776      22.1721    3976.0493    4643.7280       0.8494       0.8570       0.1610      66.4324     191.9034       2.4314       0.0000
    9315.5       0.5530       1.3460    7413.9653    3633.0886       0.4851       0.4901      20.7561    4106.6470    4912.7876       0.8344       0.8363       0.1492      61.3371     191.8961       2.2719       0.0000
    9315.0       0.5840       1.4203    7409.4219    3701.6792       0.5047       0.4996      17.9216    4345.9307    5475.2222       0.8253       0.7989       0.1308      57.6384     191.8896       2.3287       0.0000
    9314.5       0.6179       1.6389    7383.3940    3749.6587       0.5091       0.5079      15.4285    4650.6421    6214.2476       0.7370       0.7546       0.1065      52.6514     191.8828       2.4339       0.0000
    9314.0       0.6787       1.8445    7387.2026    3744.1655       0.5097       0.5068      13.6566    4911.0190    6923.8330       0.7016       0.7104       0.0800      49.0859     191.8756       2.4405       0.0000
    9313.5       0.6998       1.9841    7385.6069    3742.4290       0.5017       0.5067      12.6119    5040.5850    7268.7070       0.6927       0.6936       0.0714      45.0173     191.8662       2.3001       0.0000
    9313.0       0.6948       1.9642    7436.8706    3768.2683       0.5087       0.5067      12.1165    5060.1304    7403.8594       0.6864       0.6835       0.0659      46.3180     191.8581       2.1977       0.0000
    9312.5       0.6686       1.9520    7496.7446    3812.5593       0.5096       0.5086      11.5600    5012.9272    7535.7202       0.6713       0.6656       0.0556      44.0988     191.8503       2.7867       0.0000
    9312.0       0.6491       1.9914    7576.1655    3835.6113       0.5074       0.5063      11.4488    4975.7886    7691.2754       0.6391       0.6473       0.0437      39.5587     191.8416       2.9839       0.0000
    9311.5       0.6444       2.0401    7606.2798    3824.3284       0.5019       0.5028      11.7706    4939.7471    7859.9810       0.6315       0.6286       0.0304      39.2000     191.8287       2.6353       0.0000
    9311.0       0.6402       2.0888    7583.3589    3833.6675       0.4991       0.5056      12.0760    4922.1123    7930.4932       0.6151       0.6207       0.0244      41.7891     191.8184       2.7735       0.0000
    9310.5       0.6517       2.0608    7529.1611    3829.9675       0.5158       0.5087      11.8594    4897.3418    7919.0215       0.6155       0.6185       0.0234      45.2138     191.8136       2.6376       0.0000
    9310.0       0.6547       2.0518    7460.6938    3837.5071       0.5113       0.5144      11.9824    4911.1030    7854.3501       0.6248       0.6254       0.0270      46.2739     191.8072       2.7610       0.0000
    9309.5       0.6686       2.0259    7420.6147    3808.7100       0.5160       0.5133      12.3159    4970.1118    7790.1377       0.6358       0.6380       0.0338      45.4446     191.7982       3.2267       0.0000
    9309.0       0.6836       2.0512    7405.7363    3813.2976       0.5125       0.5149      12.3037    5090.3652    7875.7153       0.6535       0.6463       0.0392      42.2453     191.7918       3.3189       0.0000
    9308.5       0.7071       2.0934    7421.8711    3806.2283       0.5162       0.5128      11.6120    5225.2144    8052.7998       0.6496       0.6490       0.0435      47.8093     191.7870       3.2503       0.0000
    9308.0       0.7169       2.1842    7420.7949    3774.7417       0.5098       0.5087      11.0928    5260.4966    8048.6162       0.6438       0.6539       0.0487      48.9050     191.7778       3.1467       0.0000
    9307.5       0.6998       2.1282    7374.0454    3700.7441       0.4999       0.5018      12.2268    5133.0591    7694.7930       0.6682       0.6684       0.0545      47.6174     191.7685       3.1197       0.0000
    9307.0       0.6599       1.9428    7283.7148    3625.4282       0.4957       0.4977      13.7493    4908.0244    7070.7393       0.6933       0.6960       0.0677      47.9801     191.7600       3.4422       0.0000
