~VERSION INFORMATION
VERS.           2.0   :CWLS Log ASCII Standard - VERSION 2.0
WRAP.           NO    :One Line per depth step
PROD.  Schlumberger   :LAS Producer
PROG.  DLIS to ASCII 2.2                               :LAS Program name and version
CREA.        2015/01/05 09:49                          :LAS Creation date {YYYY/MM/DD hh:mm}
SOURCE.     JF 20-5_Main Pass.DLIS                     :DLIS File Name
FILE-ID.     SCMT_RST_PSP_012LUP                       :File Identification Number
#--------------------------------------------------
~WELL INFORMATION
#MNEM.UNIT      DATA             DESCRIPTION
#---- ------ --------------   -----------------------------
STRT .F        12063.0       :START DEPTH     
STOP .F         6915.0       :STOP DEPTH     
STEP .F           -0.5       :STEP     
NULL .          -999.25      :NULL VALUE
COMP .        Encana Oil & Gas (USA) Inc.              :COMPANY
WELL .        Jonah Federal 20-5                       :WELL
FLD  .        Jonah                                    :FIELD
LOC  .        SHL: Lot-6, 690' FNL & 2203' FEL         :LOCATION
CNTY .        Sublette                                 :COUNTY
STAT .        Wyoming                                  :STATE
CTRY .                                                 :COUNTRY
API  .        49035281690000                           :API NUMBER
UWI  .        49035281690000                           :UNIQUE WELL ID
DATE .        02-Jan-2015                              :LOG DATE {DD-MMM-YYYY}
SRVC .        Schlumberger                             :SERVICE COMPANY
LATI .DEG                                              :LATITUDE
LONG .DEG                                              :LONGITUDE
GDAT .                                                 :GeoDetic Datum
#-----------------------------------------------------------------------------
~PARAMETER INFORMATION
#MNEM.UNIT    VALUE                      DESCRIPTION
#---- -----   --------------------       ------------------------
RUN  .          1                        :RUN NUMBER
PDAT .        GROUND LEVEL               :Permanent Datum
EPD  .F         7141.000000              :Elevation of Permanent Datum above Mean Sea Level
EPD  .F         7141.000000              :Elevation of tool zero above Mean Sea Level
LMF  .          KELLY BUSHING            :Logging Measured From (Name of Logging Elevation Reference)
APD  .F          13.500000               :Elevation of Depth Reference (LMF) above Permanent Datum
#-----------------------------------------------------------------------------
~CURVE INFORMATION
#MNEM.UNIT   API CODE                                  DESCRIPTION
#---- -----  --------                                  -----------------------
DEPT .F                                                :DEPTH (BOREHOLE) {F10.1}
CIRN_FIL.                                              :Capture to Inelastic Ratio Near Filtered {F13.4}
CIRF_FIL.                                              :Capture to Inelastic Ratio Far Filtered {F13.4}
INND_FIL.HZ                                            :Gross Inelastic Count Rate Near Detector Filtered {F13.4}
INFD_FIL.HZ                                            :Gross Inelastic Count Rate Far Detector Filtered {F13.4}
IRAT .                                                 :Inelastic Ratio {F13.4}
IRAT_FIL.                                              :Inelastic Ratio Filtered {F13.4}
SIGM .CU                                               :Formation Sigma (Neutron Capture Cross Section) {F13.4}
TSCN_FIL.HZ                                            :Total Selected Count Rate Near Detector Filtered {F13.4}
TSCF_FIL.HZ                                            :Total Selected Count Rate Far Detector Filtered {F13.4}
TRAT .                                                 :Near/Far Capture Ratio {F13.4}
TRAT_FIL.                                              :Capture Ratio Filtered {F13.4}
TPHI .CFCF                                             :Thermal Decay Porosity {F13.4}
GR   .GAPI                                             :Gamma Ray {F13.4}
WTEP .DEGF                                             :Well Temperature {F13.4}
CBL  .MV                                               :CBL Amplitude {F13.4}
CCLD .V                                                :CCL Discriminated Amplitude {F13.4}
#-----------------------------------------------------------------------------
# 
#     DEPT      CIRN_FIL     CIRF_FIL     INND_FIL     INFD_FIL       IRAT       IRAT_FIL       SIGM       TSCN_FIL     TSCF_FIL       TRAT       TRAT_FIL       TPHI         GR           WTEP         CBL          CCLD
#
~A  
# ...
    7623.0       0.7230       1.9137    7264.9438    3634.6255       0.4988       0.5003      15.6824    5236.3911    6906.6465       0.7637       0.7581       0.1071      54.3503     169.1676       9.5039       0.0000
    7622.5       0.6987       1.8347    7297.4131    3668.9473       0.5111       0.5028      15.2402    5067.8135    6920.1221       0.7355       0.7325       0.0905      58.3360     169.1629       7.4911       0.0000
    7622.0       0.6690       1.8815    7351.4561    3697.4016       0.4984       0.5030      15.0089    4965.6230    6985.0391       0.6984       0.7111       0.0761      53.1174     169.1553       7.6279       0.0000
    7621.5       0.6689       1.8887    7377.4839    3672.7415       0.4994       0.4978      14.8369    4964.8481    7065.6396       0.6995       0.7027       0.0707      48.5563     169.1474      10.8656       0.0000
    7621.0       0.6952       1.9361    7372.7402    3665.2742       0.4957       0.4971      14.5535    5185.0308    7106.8569       0.7101       0.7295       0.0906      48.9262     169.1430      13.5581       0.0000
    7620.5       0.7464       1.9829    7345.2461    3646.8372       0.4963       0.4965      14.6181    5483.6206    7230.2471       0.7789       0.7579       0.1105      49.5549     169.1391      21.5654       0.0000
    7620.0       0.7964       2.0464    7331.3940    3626.9714       0.4975       0.4947      13.8842    5804.1724    7439.8916       0.7849       0.7802       0.1287      45.1022     169.1353      30.6189       0.0000
    7619.5       0.8290       2.1663    7325.7949    3623.6196       0.4904       0.4946      13.6502    6005.7520    7667.6519       0.7767       0.7833       0.1317      40.2450     169.1313      46.9138       0.0000
    7619.0       0.8350       2.1786    7310.2520    3612.4880       0.4960       0.4942      12.6724    6042.1328    7820.5566       0.7882       0.7727       0.1274      43.5738     169.1251      48.7479       0.0000
    7618.5       0.8212       2.1799    7284.2344    3631.9268       0.4961       0.4986      12.6109    6023.9722    7850.3887       0.7532       0.7674       0.1240      43.2556     169.1192      51.1418       0.0000
    7618.0       0.8205       2.1249    7240.0410    3620.3110       0.5037       0.5000      12.6815    5934.6929    7776.8408       0.7609       0.7633       0.1210      42.1132     169.1134      48.7929       0.0000
    7617.5       0.8226       2.0916    7230.3311    3602.6694       0.5003       0.4983      13.5019    5878.2798    7625.7041       0.7758       0.7710       0.1239      50.6346     169.1087      46.7963       0.0000
    7617.0       0.8007       2.0814    7244.2417    3530.4609       0.4908       0.4874      13.9468    5742.4424    7349.5527       0.7762       0.7816       0.1302      56.4412     169.1065      38.3601       0.0000
    7616.5       0.7635       2.0319    7273.6680    3492.6406       0.4711       0.4802      14.8909    5568.9546    7068.8975       0.7928       0.7882       0.1318      61.5817     169.1052      24.6955      -0.1626
    7616.0       0.7381       1.9605    7267.9341    3472.1333       0.4787       0.4778      15.4588    5378.2173    6745.0498       0.7955       0.7975       0.1368      62.6159     169.1031      19.2095       0.0000
    7615.5       0.7205       1.8683    7221.7676    3503.3660       0.4834       0.4852      16.6139    5215.9453    6523.2388       0.8043       0.7996       0.1348      68.1639     169.1013      13.5395       0.0000
    7615.0       0.7060       1.7839    7243.1030    3509.7786       0.4933       0.4846      17.2875    5046.3120    6343.7168       0.7992       0.7953       0.1295      67.8945     169.0973      11.1455       0.0000
    7614.5       0.6693       1.7734    7305.0405    3522.5061       0.4771       0.4823      17.7602    4888.0479    6232.0913       0.7825       0.7842       0.1197      71.4240     169.0892       6.4449       0.0000
    7614.0       0.6438       1.7501    7396.1338    3551.0916       0.4765       0.4801      17.4755    4766.5483    6175.4272       0.7709       0.7718       0.1114      67.5382     169.0810       5.1481       0.0000
    7613.5       0.6319       1.7010    7421.3599    3608.5757       0.4867       0.4862      17.7102    4695.6167    6144.7896       0.7620       0.7642       0.1047      68.6717     169.0745       6.1114       0.0000
    7613.0       0.6270       1.6596    7432.0522    3659.2739       0.4955       0.4924      18.1218    4676.8062    6138.5063       0.7595       0.7619       0.1015      70.5211     169.0678       6.5001       0.0000
    7612.5       0.6285       1.6684    7408.4683    3660.3923       0.4949       0.4941      19.0163    4642.6929    6142.1597       0.7641       0.7559       0.0941      72.4322     169.0603       8.1605       0.0000
    7612.0       0.6197       1.7051    7362.4434    3589.9507       0.4919       0.4875      18.9918    4597.0630    6079.8408       0.7441       0.7562       0.0946      68.7335     169.0534       9.7892       0.0000
    7611.5       0.6160       1.7169    7303.2349    3524.3882       0.4759       0.4825      19.0206    4542.2383    5981.8271       0.7604       0.7596       0.0975      71.2966     169.0463      10.2897       0.0000
    7611.0       0.6204       1.6752    7281.9595    3476.9702       0.4799       0.4775      19.0384    4518.9629    5851.2363       0.7744       0.7724       0.1073      71.2966     169.0385       6.9958       0.0000
    7610.5       0.6211       1.6454    7348.5698    3490.9531       0.4767       0.4751      18.7645    4480.5850    5768.0293       0.7825       0.7768       0.1119      65.7080     169.0301       4.4826       0.0000
    7610.0       0.6070       1.6247    7420.2856    3485.0793       0.4688       0.4697      18.3042    4427.7041    5708.1367       0.7735       0.7756       0.1126      59.9977     169.0217       7.3371       0.6645
    7609.5       0.6021       1.6337    7466.5439    3477.2800       0.4637       0.4657      18.1780    4366.3936    5663.0190       0.7709       0.7710       0.1097      64.3984     169.0156       5.5731       0.9148
    7609.0       0.5921       1.6310    7401.2388    3470.4094       0.4646       0.4690      18.5306    4379.8994    5628.2295       0.7686       0.7783       0.1140      63.9095     169.0097       5.1347      -0.0529
    7608.5       0.6089       1.5907    7319.6880    3491.7883       0.4786       0.4772      19.6850    4307.5171    5540.2041       0.7952       0.7774       0.1099      68.7178     169.0029       4.2233       0.0000
    7608.0       0.5866       1.5058    7223.8521    3512.7498       0.4883       0.4863      19.7184    4218.3628    5380.9268       0.7684       0.7839       0.1150      78.3937     168.9991       2.8796       0.0000
    7607.5       0.5809       1.4536    7182.5688    3514.2302       0.4921       0.4893      20.6052    4079.0432    5166.8477       0.7880       0.7901       0.1170      89.0730     168.9947       5.2327       0.0000
    7607.0       0.5656       1.3950    7128.1826    3498.0759       0.4875       0.4907      21.4944    4071.1316    4952.6826       0.8140       0.8231       0.1391      99.7588     168.9896       3.8549       0.0000
    7606.5       0.5916       1.3352    7147.8936    3487.0242       0.4927       0.4879      23.9096    4100.3354    4710.4414       0.8672       0.8727       0.1696     107.5261     168.9877       4.2387       0.0000
    7606.0       0.5868       1.2710    7150.8301    3448.8293       0.4835       0.4823      25.7481    4118.9248    4460.8730       0.9370       0.9256       0.2054     104.1121     168.9858       4.4767       0.0000
    7605.5       0.5782       1.2419    7198.5215    3414.8064       0.4709       0.4744      25.8557    4084.9219    4303.6895       0.9726       0.9495       0.2243      96.3260     168.9823       4.8955       0.0000
    7605.0       0.5531       1.2708    7192.4360    3397.9170       0.4688       0.4724      25.3662    4028.0688    4352.5029       0.9388       0.9271       0.2079      84.9069     168.9786       4.1207       0.0000
