~VERSION INFORMATION
VERS.           2.0   :CWLS Log ASCII Standard - VERSION 2.0
WRAP.           NO    :One Line per depth step
PROD.  Schlumberger   :LAS Producer
PROG.  DLIS to ASCII 2.2                               :LAS Program name and version
CREA.        2015/01/05 09:49                          :LAS Creation date {YYYY/MM/DD hh:mm}
SOURCE.     JF 20-5_Main Pass.DLIS                     :DLIS File Name
FILE-ID.     SCMT_RST_PSP_012LUP                       :File Identification Number
#--------------------------------------------------
~WELL INFORMATION
#MNEM.UNIT      DATA             DESCRIPTION
#---- ------ --------------   -----------------------------
STRT .F        12063.0       :START DEPTH     
STOP .F         6915.0       :STOP DEPTH     
STEP .F           -0.5       :STEP     
NULL .          -999.25      :NULL VALUE
COMP .        Encana Oil & Gas (USA) Inc.              :COMPANY
WELL .        Jonah Federal 20-5                       :WELL
FLD  .        Jonah                                    :FIELD
LOC  .        SHL: Lot-6, 690' FNL & 2203' FEL         :LOCATION
CNTY .        Sublette                                 :COUNTY
STAT .        Wyoming                                  :STATE
CTRY .                                                 :COUNTRY
API  .        49035281690000                           :API NUMBER
UWI  .        49035281690000                           :UNIQUE WELL ID
DATE .        02-Jan-2015                              :LOG DATE {DD-MMM-YYYY}
SRVC .        Schlumberger                             :SERVICE COMPANY
LATI .DEG                                              :LATITUDE
LONG .DEG                                              :LONGITUDE
GDAT .                                                 :GeoDetic Datum
#-----------------------------------------------------------------------------
~PARAMETER INFORMATION
#MNEM.UNIT    VALUE                      DESCRIPTION
#---- -----   --------------------       ------------------------
RUN  .          1                        :RUN NUMBER
PDAT .        GROUND LEVEL               :Permanent Datum
EPD  .F         7141.000000              :Elevation of Permanent Datum above Mean Sea Level
EPD  .F         7141.000000              :Elevation of tool zero above Mean Sea Level
LMF  .          KELLY BUSHING            :Logging Measured From (Name of Logging Elevation Reference)
APD  .F          13.500000               :Elevation of Depth Reference (LMF) above Permanent Datum
#-----------------------------------------------------------------------------
~CURVE INFORMATION
#MNEM.UNIT   API CODE                                  DESCRIPTION
#---- -----  --------                                  -----------------------
DEPT .F                                                :DEPTH (BOREHOLE) {F10.1}
CIRN_FIL.                                              :Capture to Inelastic Ratio Near Filtered {F13.4}
CIRF_FIL.                                              :Capture to Inelastic Ratio Far Filtered {F13.4}
INND_FIL.HZ                                            :Gross Inelastic Count Rate Near Detector Filtered {F13.4}
INFD_FIL.HZ                                            :Gross Inelastic Count Rate Far Detector Filtered {F13.4}
IRAT .                                                 :Inelastic Ratio {F13.4}
IRAT_FIL.                                              :Inelastic Ratio Filtered {F13.4}
SIGM .CU                                               :Formation Sigma (Neutron Capture Cross Section) {F13.4}
TSCN_FIL.HZ                                            :Total Selected Count Rate Near Detector Filtered {F13.4}
TSCF_FIL.HZ                                            :Total Selected Count Rate Far Detector Filtered {F13.4}
TRAT .                                                 :Near/Far Capture Ratio {F13.4}
TRAT_FIL.                                              :Capture Ratio Filtered {F13.4}
TPHI .CFCF                                             :Thermal Decay Porosity {F13.4}
GR   .GAPI                                             :Gamma Ray {F13.4}
WTEP .DEGF                                             :Well Temperature {F13.4}
CBL  .MV                                               :CBL Amplitude {F13.4}
CCLD .V                                                :CCL Discriminated Amplitude {F13.4}
#-----------------------------------------------------------------------------
# 
#     DEPT      CIRN_FIL     CIRF_FIL     INND_FIL     INFD_FIL       IRAT       IRAT_FIL       SIGM       TSCN_FIL     TSCF_FIL       TRAT       TRAT_FIL       TPHI         GR           WTEP         CBL          CCLD
#
~A  
# ...
   10361.0       0.7302       2.1716    7208.4663    3688.0891       0.5163       0.5116      11.0387    5266.9302    8168.0381       0.6481       0.6451       0.0432      44.3266     205.5395       2.9668       0.0000
   10360.5       0.7357       2.1653    7148.6367    3685.1133       0.5110       0.5155      11.2929    5235.3809    7946.0605       0.6610       0.6590       0.0515      46.9157     205.5340       2.7217       0.0000
   10360.0       0.7328       2.1103    7107.0444    3644.9255       0.5192       0.5129      12.0001    5164.7964    7715.3794       0.6679       0.6696       0.0565      46.2784     205.5254       2.6793       0.0000
   10359.5       0.7127       2.0858    7091.2949    3612.3267       0.5084       0.5094      13.0158    5029.3257    7401.7852       0.6800       0.6799       0.0604      50.7029     205.5171       2.5594       0.0000
   10359.0       0.6774       1.9776    7122.6880    3583.2170       0.5007       0.5031      14.4619    4803.7266    6993.3911       0.6917       0.6871       0.0608      54.9192     205.5090       2.3898       0.0000
   10358.5       0.6335       1.7989    7103.3872    3538.2717       0.5002       0.4981      16.0514    4571.5815    6410.2871       0.6896       0.7160       0.0763      57.9140     205.5010       2.0779       0.0000
   10358.0       0.6263       1.6592    7057.5098    3489.1797       0.4933       0.4943      18.1698    4348.7065    5798.3994       0.7667       0.7546       0.0973      61.8974     205.4906       1.9919       0.0000
   10357.5       0.6039       1.5181    6941.8081    3392.8413       0.4895       0.4887      20.1695    4212.2012    5254.4277       0.8075       0.8034       0.1263      67.7923     205.4812       2.0697       0.0000
   10357.0       0.5995       1.4751    6891.6611    3331.4788       0.4833       0.4834      21.9407    4078.7163    4905.1694       0.8360       0.8324       0.1423      67.4774     205.4771       2.4599       0.0000
   10356.5       0.5756       1.4129    6846.7129    3311.8801       0.4774       0.4837      23.1905    3998.2549    4637.4775       0.8537       0.8633       0.1619      69.4203     205.4699       2.8385       0.0000
   10356.0       0.5778       1.3282    6886.9155    3336.2717       0.4905       0.4844      24.3200    3944.6560    4442.1719       0.9002       0.8888       0.1781      73.1150     205.4606       2.8596       0.0000
   10355.5       0.5642       1.2900    6934.3584    3379.9368       0.4855       0.4874      24.9419    3933.8142    4340.3193       0.9125       0.9064       0.1898      79.9151     205.4528       2.9351       0.0000
   10355.0       0.5597       1.2805    7045.5439    3381.8052       0.4863       0.4801      25.0014    3910.8159    4397.9502       0.9064       0.8900       0.1767      78.4372     205.4448       2.9311       0.0000
   10354.5       0.5428       1.3579    7112.3452    3383.6499       0.4685       0.4758      24.3150    3891.7229    4513.6440       0.8510       0.8632       0.1579      79.0967     205.4328       2.4326       0.0000
   10354.0       0.5433       1.3761    7136.1001    3354.1963       0.4726       0.4700      23.7293    3874.4063    4607.0044       0.8321       0.8410       0.1422      82.4467     205.4200       2.3088       0.0000
   10353.5       0.5494       1.3863    7035.3989    3343.5867       0.4690       0.4754      23.4700    3849.6772    4565.1001       0.8400       0.8435       0.1451      85.4816     205.4095       2.0575       0.0000
   10353.0       0.5544       1.3227    6904.4326    3320.4392       0.4845       0.4811      25.4210    3810.8489    4383.5396       0.8584       0.8708       0.1594      77.2741     205.3990       2.0328       0.0000
   10352.5       0.5575       1.2417    6800.5908    3317.9670       0.4898       0.4879      26.2217    3758.6323    4190.1689       0.9141       0.8982       0.1783      75.1238     205.3920       1.9603       0.0000
   10352.0       0.5488       1.2103    6753.2095    3312.6833       0.4895       0.4905      26.6337    3741.0564    4048.6934       0.9221       0.9241       0.1976      75.1486     205.3803       2.2190       0.0000
   10351.5       0.5603       1.2054    6741.9814    3317.1812       0.4923       0.4920      25.9270    3746.7168    4003.3140       0.9361       0.9360       0.2101      77.9510     205.3671       1.9434       0.0000
   10351.0       0.5613       1.1878    6743.0254    3313.5728       0.4943       0.4914      26.1471    3753.5391    3935.0715       0.9497       0.9542       0.2244      72.3298     205.3580       2.0398       0.0000
   10350.5       0.5544       1.1572    6798.3350    3330.6406       0.4876       0.4899      27.3497    3756.5371    3849.3159       0.9768       0.9764       0.2383      75.0185     205.3477       1.9914       0.0000
   10350.0       0.5477       1.1173    6872.7764    3335.8608       0.4879       0.4854      27.7747    3757.9160    3805.5293       1.0026       0.9876       0.2459      78.6641     205.3361       1.8730       0.0000
   10349.5       0.5451       1.1581    6906.5386    3369.0850       0.4806       0.4878      27.9273    3789.9370    3838.3706       0.9833       0.9876       0.2452      82.5251     205.3235       1.7585       0.0000
   10349.0       0.5570       1.1602    6880.1069    3352.3499       0.4949       0.4873      26.8914    3834.9614    3930.1287       0.9768       0.9759       0.2398      81.2006     205.3115       1.6560       0.0000
   10348.5       0.5664       1.2174    6837.3608    3366.9341       0.4862       0.4924      26.7843    3893.5693    3984.7839       0.9676       0.9771       0.2413      83.8910     205.2997       0.4601       0.0000
   10348.0       0.5734       1.1967    6866.6406    3345.0791       0.4961       0.4872      26.7814    3898.3047    3993.0754       0.9870       0.9763       0.2407      84.2289     205.2871       0.7078       0.0000
   10347.5       0.5427       1.1827    7001.6611    3358.1382       0.4793       0.4799      27.6637    3783.0547    3937.2397       0.9742       0.9604       0.2241      88.6673     205.2753       1.5556      -3.0458
   10347.0       0.5039       1.1454    7120.9263    3327.5894       0.4644       0.4674      28.7498    3700.0398    3923.0706       0.9201       0.9430       0.2051      89.6217     205.2639       1.4417       0.8796
   10346.5       0.5028       1.1886    7167.0938    3345.0400       0.4586       0.4668      27.9326    3683.0266    3934.7498       0.9347       0.9359       0.2021      84.0796     205.2550       1.6981       0.0220
   10346.0       0.5319       1.1919    7113.2271    3369.1775       0.4773       0.4737      27.6822    3794.2004    4001.4458       0.9528       0.9481       0.2132      85.7151     205.2480       1.6171       0.0000
   10345.5       0.5506       1.2178    7067.0234    3415.3069       0.4853       0.4833      26.8622    3829.1438    4002.9492       0.9569       0.9566       0.2232      87.1223     205.2398       2.8083       0.0000
   10345.0       0.5452       1.1830    7064.7178    3421.1453       0.4873       0.4843      27.5318    3829.6062    4011.9617       0.9600       0.9546       0.2187      86.1620     205.2294       2.0737       0.0000
   10344.5       0.5349       1.1884    7076.9717    3440.4304       0.4803       0.4861      26.7564    3806.0093    3990.4949       0.9468       0.9538       0.2206      86.1498     205.2201       2.4702       0.0000
   10344.0       0.5399       1.1516    7100.5356    3470.0940       0.4909       0.4887      26.0542    3812.6023    4015.4722       0.9546       0.9495       0.2198      83.6164     205.2121       2.5810       0.0000
   10343.5       0.5408       1.1638    7119.8589    3495.9067       0.4950       0.4910      24.7181    3824.7866    4072.9402       0.9471       0.9394       0.2168      81.1378     205.2070       2.2086       0.0000
   10343.0       0.5370       1.2242    7163.7534    3488.1418       0.4872       0.4870      23.8884    3877.6550    4264.9595       0.9165       0.9109       0.1968      77.8004     205.2014       1.9938       0.0000
