~VERSION INFORMATION
VERS.           2.0   :CWLS Log ASCII Standard - VERSION 2.0
WRAP.           NO    :One Line per depth step
PROD.  Schlumberger   :LAS Producer
PROG.  DLIS to ASCII 2.2                               :LAS Program name and version
CREA.        2015/01/05 09:49                          :LAS Creation date {YYYY/MM/DD hh:mm}
SOURCE.     JF 20-5_Main Pass.DLIS                     :DLIS File Name
FILE-ID.     SCMT_RST_PSP_012LUP                       :File Identification Number
#--------------------------------------------------
~WELL INFORMATION
#MNEM.UNIT      DATA             DESCRIPTION
#---- ------ --------------   -----------------------------
STRT .F        12063.0       :START DEPTH     
STOP .F         6915.0       :STOP DEPTH     
STEP .F           -0.5       :STEP     
NULL .          -999.25      :NULL VALUE
COMP .        Encana Oil & Gas (USA) Inc.              :COMPANY
WELL .        Jonah Federal 20-5                       :WELL
FLD  .        Jonah                                    :FIELD
LOC  .        SHL: Lot-6, 690' FNL & 2203' FEL         :LOCATION
CNTY .        Sublette                                 :COUNTY
STAT .        Wyoming                                  :STATE
CTRY .                                                 :COUNTRY
API  .        49035281690000                           :API NUMBER
UWI  .        49035281690000                           :UNIQUE WELL ID
DATE .        02-Jan-2015                              :LOG DATE {DD-MMM-YYYY}
SRVC .        Schlumberger                             :SERVICE COMPANY
LATI .DEG                                              :LATITUDE
LONG .DEG                                              :LONGITUDE
GDAT .                                                 :GeoDetic Datum
#-----------------------------------------------------------------------------
~PARAMETER INFORMATION
#MNEM.UNIT    VALUE                      DESCRIPTION
#---- -----   --------------------       ------------------------
RUN  .          1                        :RUN NUMBER
PDAT .        GROUND LEVEL               :Permanent Datum
EPD  .F         7141.000000              :Elevation of Permanent Datum above Mean Sea Level
EPD  .F         7141.000000              :Elevation of tool zero above Mean Sea Level
LMF  .          KELLY BUSHING            :Logging Measured From (Name of Logging Elevation Reference)
APD  .F          13.500000               :Elevation of Depth Reference (LMF) above Permanent Datum
#-----------------------------------------------------------------------------
~CURVE INFORMATION
#MNEM.UNIT   API CODE                                  DESCRIPTION
#---- -----  --------                                  -----------------------
DEPT .F                                                :DEPTH (BOREHOLE) {F10.1}
CIRN_FIL.                                              :Capture to Inelastic Ratio Near Filtered {F13.4}
CIRF_FIL.                                              :Capture to Inelastic Ratio Far Filtered {F13.4}
INND_FIL.HZ                                            :Gross Inelastic Count Rate Near Detector Filtered {F13.4}
INFD_FIL.HZ                                            :Gross Inelastic Count Rate Far Detector Filtered {F13.4}
IRAT .                                                 :Inelastic Ratio {F13.4}
IRAT_FIL.                                              :Inelastic Ratio Filtered {F13.4}
SIGM .CU                                               :Formation Sigma (Neutron Capture Cross Section) {F13.4}
TSCN_FIL.HZ                                            :Total Selected Count Rate Near Detector Filtered {F13.4}
TSCF_FIL.HZ                                            :Total Selected Count Rate Far Detector Filtered {F13.4}
TRAT .                                                 :Near/Far Capture Ratio {F13.4}
TRAT_FIL.                                              :Capture Ratio Filtered {F13.4}
TPHI .CFCF                                             :Thermal Decay Porosity {F13.4}
GR   .GAPI                                             :Gamma Ray {F13.4}
WTEP .DEGF                                             :Well Temperature {F13.4}
CBL  .MV                                               :CBL Amplitude {F13.4}
CCLD .V                                                :CCL Discriminated Amplitude {F13.4}
#-----------------------------------------------------------------------------
# 
#     DEPT      CIRN_FIL     CIRF_FIL     INND_FIL     INFD_FIL       IRAT       IRAT_FIL       SIGM       TSCN_FIL     TSCF_FIL       TRAT       TRAT_FIL       TPHI         GR           WTEP         CBL          CCLD
#
~A  
# ...
   11730.0       0.6100       1.4258    7175.9590    3472.0513       0.4772       0.4839      22.0029    4424.8413    4903.7793       0.9058       0.9032       0.1986      78.4986     227.2366       2.5269       0.0000
   11729.5       0.6393       1.5344    7181.0869    3455.4304       0.4831       0.4812      20.4681    4567.2559    5073.9707       0.8824       0.9004       0.2022      79.7926     227.2238       2.4304       0.0000
   11729.0       0.6586       1.5426    7110.9438    3445.8621       0.4834       0.4846      20.5026    4663.3472    5128.1831       0.9129       0.9097       0.2097      82.1430     227.2157       2.8308       0.0000
   11728.5       0.6658       1.4972    7050.2842    3432.4500       0.4873       0.4869      21.3278    4689.1138    5003.5562       0.9339       0.9376       0.2293      84.7150     227.2114       3.3785       0.0000
   11728.0       0.6717       1.4138    7040.2529    3400.0984       0.4899       0.4830      22.7560    4635.0981    4852.0195       0.9661       0.9556       0.2386      84.0842     227.2043       3.5136       0.0000
   11727.5       0.6467       1.4037    7078.5449    3364.2571       0.4717       0.4754      24.4068    4554.3750    4687.3354       0.9669       0.9718       0.2456      83.6153     227.1956       4.2079       0.0000
   11727.0       0.6223       1.3660    7196.5103    3353.3103       0.4645       0.4660      24.9840    4428.4526    4555.6860       0.9825       0.9721       0.2436      72.5189     227.1854       4.5356       0.0000
   11726.5       0.5857       1.3216    7343.1235    3414.3975       0.4618       0.4649      25.1705    4387.3555    4591.4346       0.9670       0.9563       0.2299      65.9589     227.1751       4.0484       0.0000
   11726.0       0.5864       1.3682    7498.3716    3504.8884       0.4685       0.4674      22.5132    4485.8120    4908.1997       0.9195       0.9174       0.2081      66.6979     227.1624       3.1360       0.0000
   11725.5       0.6120       1.5200    7574.4419    3561.4878       0.4717       0.4702      20.8867    4666.6348    5331.9858       0.8657       0.8775       0.1821      67.0217     227.1527       2.9965       0.0000
   11725.0       0.6376       1.6199    7585.3970    3562.4351       0.4703       0.4696      20.8151    4800.5815    5562.1367       0.8474       0.8633       0.1711      64.5169     227.1448       2.8471       0.0000
   11724.5       0.6318       1.5554    7564.9263    3545.2883       0.4668       0.4686      23.2903    4707.9858    5406.7163       0.8770       0.8717       0.1688      71.0970     227.1326       2.7246       0.0000
   11724.0       0.5891       1.3845    7602.8423    3543.0256       0.4688       0.4660      24.9643    4525.9873    5026.7676       0.8908       0.9021       0.1872      80.2257     227.1234       2.9276       0.0000
   11723.5       0.5620       1.2935    7660.8765    3562.3806       0.4625       0.4650      25.4288    4394.0928    4834.1616       0.9386       0.9097       0.1919      78.4948     227.1135       3.1156       0.0000
   11723.0       0.5740       1.3463    7671.3359    3562.6362       0.4638       0.4644      23.8992    4420.2476    4886.2969       0.8996       0.9058       0.1948      72.4626     227.1014       3.1243       0.0000
   11722.5       0.6029       1.4435    7601.4106    3549.4429       0.4669       0.4670      23.2596    4578.8501    5164.2915       0.8790       0.8869       0.1821      72.7029     227.0926       2.6876       0.0000
   11722.0       0.6406       1.5514    7455.2729    3505.9487       0.4702       0.4703      22.4442    4833.7817    5359.5747       0.8821       0.9014       0.1972      77.5964     227.0868       3.7067       0.0000
   11721.5       0.6985       1.5912    7329.5571    3472.6780       0.4738       0.4738      21.8085    5106.3096    5422.2646       0.9429       0.9421       0.2335      71.3700     227.0797       3.7605       0.0000
   11721.0       0.7324       1.5648    7264.3047    3463.0193       0.4775       0.4767      20.9702    5267.5000    5380.5947       1.0012       0.9793       0.2678      67.4843     227.0703       3.7444       0.0000
   11720.5       0.7153       1.5331    7356.4707    3511.0969       0.4788       0.4773      20.2716    5212.3955    5372.9824       0.9939       0.9706       0.2631      70.0857     227.0600       3.4621       0.0000
   11720.0       0.6646       1.5287    7525.8682    3593.5183       0.4756       0.4775      19.9139    5066.2417    5592.2397       0.9166       0.9096       0.2140      69.1152     227.0467       2.8819       0.0000
   11719.5       0.6348       1.6225    7662.6196    3682.9619       0.4781       0.4806      19.2352    4953.5542    5930.1851       0.8183       0.8387       0.1584      63.1973     227.0334       2.4746       0.0000
   11719.0       0.6425       1.6816    7714.7910    3727.3523       0.4882       0.4832      18.3157    4944.4443    6256.7715       0.7812       0.7908       0.1238      61.2562     227.0232       2.4235       0.0000
   11718.5       0.6475       1.7359    7704.4683    3731.0845       0.4832       0.4843      17.6827    5015.2646    6479.4673       0.7731       0.7741       0.1133      62.4524     227.0144       2.8120       0.0000
   11718.0       0.6653       1.8189    7695.3584    3720.0566       0.4815       0.4834      16.3409    5122.6362    6748.3965       0.7681       0.7597       0.1075      58.1025     227.0076       2.9790       0.0000
   11717.5       0.6838       1.9136    7686.8887    3769.8093       0.4856       0.4904      14.9270    5242.9395    7182.1040       0.7380       0.7320       0.0928      57.7378     226.9972       3.0934       0.0000
   11717.0       0.6942       1.9940    7692.4756    3822.4688       0.5042       0.4969      14.0060    5380.1523    7560.9243       0.6899       0.7123       0.0819      56.1614     226.9846       3.4488       0.0000
   11716.5       0.7200       2.0206    7680.0352    3837.0959       0.5009       0.4996      15.1941    5518.1079    7636.5244       0.7090       0.7234       0.0862      61.7425     226.9752       3.4904       0.0000
   11716.0       0.7444       1.9360    7590.6987    3722.1536       0.4937       0.4902      17.8325    5511.5278    7116.1738       0.7715       0.7804       0.1193      67.0226     226.9669       3.3876       0.0000
   11715.5       0.7286       1.7489    7490.9731    3593.8142       0.4760       0.4796      20.2806    5296.8169    6327.9600       0.8607       0.8437       0.1589      73.9616     226.9560       3.2768       0.0000
   11715.0       0.6631       1.5682    7436.1523    3478.2190       0.4692       0.4678      21.2543    4922.9170    5561.1455       0.8989       0.8867       0.1891      72.0617     226.9455       3.0583       0.0000
   11714.5       0.6047       1.4697    7477.1479    3448.1047       0.4582       0.4612      22.2415    4625.2437    5187.6226       0.9006       0.8914       0.1896      74.3778     226.9355       2.9485       0.0000
   11714.0       0.5876       1.4631    7525.3491    3432.7097       0.4562       0.4562      23.1815    4502.7178    5020.4668       0.8748       0.8970       0.1912      68.4732     226.9264       2.5560       0.0000
   11713.5       0.5975       1.4380    7547.2954    3437.8921       0.4541       0.4555      24.3386    4468.0171    5039.2212       0.9157       0.8869       0.1791      65.4124     226.9165       2.1345       0.0000
   11713.0       0.5888       1.4783    7545.2695    3433.0847       0.4562       0.4550      23.7333    4491.1406    5039.7837       0.8703       0.8914       0.1849      63.0025     226.9062       2.0637       0.0000
   11712.5       0.5965       1.4679    7513.8047    3441.7043       0.4547       0.4581      23.5622    4455.6533    5080.8706       0.8882       0.8770       0.1737      62.3555     226.8986       2.0753       0.0000
   11712.0       0.5912       1.4502    7504.1362    3469.8005       0.4633       0.4624      23.7435    4437.5083    4995.8179       0.8724       0.8885       0.1821      61.2458     226.8888       1.9546       0.0000
