~VERSION INFORMATION
VERS.           2.0   :CWLS Log ASCII Standard - VERSION 2.0
WRAP.           NO    :One Line per depth step
PROD.  Schlumberger   :LAS Producer
PROG.  DLIS to ASCII 2.2                               :LAS Program name and version
CREA.        2015/01/05 09:49                          :LAS Creation date {YYYY/MM/DD hh:mm}
SOURCE.     JF 20-5_Main Pass.DLIS                     :DLIS File Name
FILE-ID.     SCMT_RST_PSP_012LUP                       :File Identification Number
#--------------------------------------------------
~WELL INFORMATION
#MNEM.UNIT      DATA             DESCRIPTION
#---- ------ --------------   -----------------------------
STRT .F        12063.0       :START DEPTH     
STOP .F         6915.0       :STOP DEPTH     
STEP .F           -0.5       :STEP     
NULL .          -999.25      :NULL VALUE
COMP .        Encana Oil & Gas (USA) Inc.              :COMPANY
WELL .        Jonah Federal 20-5                       :WELL
FLD  .        Jonah                                    :FIELD
LOC  .        SHL: Lot-6, 690' FNL & 2203' FEL         :LOCATION
CNTY .        Sublette                                 :COUNTY
STAT .        Wyoming                                  :STATE
CTRY .                                                 :COUNTRY
API  .        49035281690000                           :API NUMBER
UWI  .        49035281690000                           :UNIQUE WELL ID
DATE .        02-Jan-2015                              :LOG DATE {DD-MMM-YYYY}
SRVC .        Schlumberger                             :SERVICE COMPANY
LATI .DEG                                              :LATITUDE
LONG .DEG                                              :LONGITUDE
GDAT .                                                 :GeoDetic Datum
#-----------------------------------------------------------------------------
~PARAMETER INFORMATION
#MNEM.UNIT    VALUE                      DESCRIPTION
#---- -----   --------------------       ------------------------
RUN  .          1                        :RUN NUMBER
PDAT .        GROUND LEVEL               :Permanent Datum
EPD  .F         7141.000000              :Elevation of Permanent Datum above Mean Sea Level
EPD  .F         7141.000000              :Elevation of tool zero above Mean Sea Level
LMF  .          KELLY BUSHING            :Logging Measured From (Name of Logging Elevation Reference)
APD  .F          13.500000               :Elevation of Depth Reference (LMF) above Permanent Datum
#-----------------------------------------------------------------------------
~CURVE INFORMATION
#MNEM.UNIT   API CODE                                  DESCRIPTION
#---- -----  --------                                  -----------------------
DEPT .F                                                :DEPTH (BOREHOLE) {F10.1}
CIRN_FIL.                                              :Capture to Inelastic Ratio Near Filtered {F13.4}
CIRF_FIL.                                              :Capture to Inelastic Ratio Far Filtered {F13.4}
INND_FIL.HZ                                            :Gross Inelastic Count Rate Near Detector Filtered {F13.4}
INFD_FIL.HZ                                            :Gross Inelastic Count Rate Far Detector Filtered {F13.4}
IRAT .                                                 :Inelastic Ratio {F13.4}
IRAT_FIL.                                              :Inelastic Ratio Filtered {F13.4}
SIGM .CU                                               :Formation Sigma (Neutron Capture Cross Section) {F13.4}
TSCN_FIL.HZ                                            :Total Selected Count Rate Near Detector Filtered {F13.4}
TSCF_FIL.HZ                                            :Total Selected Count Rate Far Detector Filtered {F13.4}
TRAT .                                                 :Near/Far Capture Ratio {F13.4}
TRAT_FIL.                                              :Capture Ratio Filtered {F13.4}
TPHI .CFCF                                             :Thermal Decay Porosity {F13.4}
GR   .GAPI                                             :Gamma Ray {F13.4}
WTEP .DEGF                                             :Well Temperature {F13.4}
CBL  .MV                                               :CBL Amplitude {F13.4}
CCLD .V                                                :CCL Discriminated Amplitude {F13.4}
#-----------------------------------------------------------------------------
# 
#     DEPT      CIRN_FIL     CIRF_FIL     INND_FIL     INFD_FIL       IRAT       IRAT_FIL       SIGM       TSCN_FIL     TSCF_FIL       TRAT       TRAT_FIL       TPHI         GR           WTEP         CBL          CCLD
#
~A  
# ...
    6938.5       0.8882       2.1358    7208.1675    3406.6243       0.4720       0.4726      16.6545    6441.9360    7272.8281       0.8799       0.8857       0.1994      57.6732     157.1528      17.0484       0.0000
    6938.0       0.9041       2.1585    7240.5576    3381.7581       0.4683       0.4671      16.4930    6526.4141    7378.0215       0.8955       0.8846       0.1991      53.2278     157.1383      15.4455       0.0000
    6937.5       0.9119       2.2333    7218.7363    3350.6123       0.4609       0.4642      16.3301    6675.4072    7520.9570       0.8784       0.8876       0.2023      49.6485     157.1292      18.9065       0.0000
    6937.0       0.9644       2.3177    7177.2778    3319.6301       0.4633       0.4625      15.2713    6829.6826    7709.1196       0.8890       0.8858       0.2047      46.6365     157.1210      24.8662       0.0000
    6936.5       0.9858       2.3933    7144.8271    3311.7158       0.4634       0.4635      15.1817    6963.1968    7851.6538       0.8901       0.8869       0.2059      42.7333     157.1151      27.1111       0.0000
    6936.0       0.9836       2.3974    7087.8052    3309.0842       0.4638       0.4669      14.8897    6994.4194    7962.7822       0.8815       0.8785       0.2000      40.1672     157.1095      29.5725       0.0000
    6935.5       1.0019       2.4267    7032.6187    3330.6628       0.4735       0.4737      14.9942    6970.8916    8031.1377       0.8638       0.8681       0.1912      43.6412     157.1047      32.7252       0.0000
    6935.0       1.0076       2.3969    6956.9912    3339.8657       0.4838       0.4801      14.5086    6977.6040    8030.7129       0.8588       0.8689       0.1937      46.1133     157.1012      35.1963       0.0000
    6934.5       1.0161       2.3632    6996.6650    3365.9624       0.4830       0.4811      14.4616    7036.3184    7913.5000       0.8842       0.8897       0.2109      40.7062     157.0975      34.1232       0.0000
    6934.0       1.0001       2.2718    7072.1777    3361.4958       0.4766       0.4754      14.4976    7113.7002    7784.2295       0.9261       0.9142       0.2306      45.7420     157.0954      32.3583       0.0000
    6933.5       0.9973       2.2860    7153.7900    3356.2017       0.4666       0.4692      14.7214    7179.7715    7706.0625       0.9322       0.9317       0.2441      47.3367     157.0913      31.9967       0.0000
    6933.0       1.0066       2.3084    7176.4780    3325.8450       0.4643       0.4634      15.1622    7189.9023    7731.0024       0.9368       0.9300       0.2412      44.9723     157.0843      34.5875       0.0000
    6932.5       0.9973       2.3523    7193.6997    3314.2217       0.4594       0.4607      15.5861    7178.3887    7716.6294       0.9211       0.9303       0.2399      44.9930     157.0776      33.0634       0.0000
    6932.0       0.9924       2.3109    7222.9692    3330.9373       0.4585       0.4611      15.4483    7141.6279    7717.5825       0.9330       0.9254       0.2364      51.1259     157.0688      30.7768       0.0000
    6931.5       0.9828       2.2863    7234.1611    3362.7983       0.4656       0.4649      15.2466    7124.4131    7686.4458       0.9221       0.9269       0.2383      49.2766     157.0613      24.2729       0.0000
    6931.0       0.9885       2.2483    7226.0259    3382.8149       0.4705       0.4681      14.9247    7123.8745    7685.8750       0.9256       0.9269       0.2395      47.3191     157.0537      23.5936       0.0000
    6930.5       0.9901       2.2549    7195.8794    3376.5684       0.4684       0.4692      15.3655    7118.7593    7654.9307       0.9330       0.9300       0.2404      47.0930     157.0481      21.0675       0.0000
    6930.0       0.9910       2.2588    7202.9077    3351.0261       0.4689       0.4652      15.8417    7077.9204    7595.4585       0.9314       0.9319       0.2405      49.3122     157.0434      17.9177       0.0000
    6929.5       0.9698       2.2612    7215.2119    3342.7507       0.4585       0.4633      16.2520    6984.5601    7497.5225       0.9312       0.9316       0.2389      49.6960     157.0373      15.1039       0.0000
    6929.0       0.9487       2.2096    7246.6118    3330.9277       0.4626       0.4597      16.6679    6856.9536    7345.0107       0.9322       0.9336       0.2391      50.3952     157.0298      13.3711       0.0000
    6928.5       0.9225       2.1615    7235.4834    3345.5369       0.4579       0.4624      16.8676    6725.7261    7227.7715       0.9374       0.9305       0.2356      53.3647     157.0217      14.0129       0.0000
    6928.0       0.9156       2.1280    7250.8447    3352.0115       0.4667       0.4623      17.0804    6687.1860    7183.9224       0.9220       0.9308       0.2348      54.9630     157.0151      15.6889       0.0000
    6927.5       0.9231       2.1461    7253.5029    3375.8105       0.4623       0.4654      16.6308    6764.2036    7298.4736       0.9331       0.9268       0.2328      52.3739     157.0074      17.0304       0.0000
    6927.0       0.9591       2.1972    7285.0049    3382.0308       0.4672       0.4642      15.8284    6978.4482    7534.0181       0.9253       0.9264       0.2350      48.6752     156.9987      18.5539       0.0000
    6926.5       1.0009       2.3299    7285.6968    3386.4583       0.4632       0.4648      14.8509    7223.5776    7835.2803       0.9209       0.9220       0.2350      48.3319     156.9926      21.6353       0.0000
    6926.0       1.0264       2.4231    7301.2588    3399.6099       0.4640       0.4656      14.2904    7424.3467    8162.9932       0.9199       0.9099       0.2276      46.3485     156.9858      23.0558       0.0000
    6925.5       1.0324       2.4732    7336.5566    3435.5217       0.4696       0.4683      13.9601    7514.0835    8431.4990       0.8891       0.8918       0.2146      42.7571     156.9773      26.2243       0.0000
    6925.0       1.0111       2.4774    7372.7329    3476.9194       0.4712       0.4716      13.6155    7467.0586    8608.2432       0.8664       0.8676       0.1963      49.3771     156.9699      27.2474       0.0000
    6924.5       0.9858       2.4622    7424.3940    3494.4583       0.4740       0.4707      13.5781    7268.3657    8501.6133       0.8473       0.8549       0.1859      60.1033     156.9632      29.8754       0.0000
    6924.0       0.9309       2.3146    7391.4028    3474.3425       0.4669       0.4701      14.8436    6738.9067    7951.5767       0.8510       0.8473       0.1749      64.9256     156.9557      26.1951       0.0000
    6923.5       0.8298       2.0428    7329.7710    3441.1021       0.4693       0.4695      17.2585    6060.5786    7058.9995       0.8437       0.8603       0.1764      68.4643     156.9475      24.5613       0.0000
    6923.0       0.7428       1.7770    7243.5005    3411.0396       0.4723       0.4709      19.5494    5399.7334    6247.7852       0.8863       0.8655       0.1722      70.4397     156.9435      23.3199       0.0000
    6922.5       0.6910       1.7010    7243.8345    3418.8877       0.4712       0.4720      19.3077    5371.4795    5980.8188       0.8664       0.8972       0.1992      66.4089     156.9417      21.1263       0.0000
    6922.0       0.7638       1.8275    7298.4922    3439.7063       0.4724       0.4713      17.4230    5690.1221    6484.5298       0.9388       0.8801       0.1925      57.5320     156.9386      17.1968       0.0000
    6921.5       0.8453       2.0863    7329.9438    3453.7021       0.4703       0.4712      15.4793    6308.9316    7221.6299       0.8352       0.8776       0.1982      51.1102     156.9331      14.2830       0.0000
    6921.0       0.9458       2.3109    7273.4951    3443.9407       0.4708       0.4735      14.7040    6749.4565    7866.5781       0.8589       0.8574       0.1846      45.4862     156.9238      13.7552       0.0000
    6920.5       0.9900       2.3895    7194.8052    3406.6711       0.4796       0.4735      14.6430    7083.7207    7998.9624       0.8781       0.8857       0.2069      42.9134     156.9165      16.8017       0.0000
